~Version Information
 VERS.                  2.0:   CWLS log ASCII Standard -VERSION 2.0
 WRAP.                   NO:   One line per depth step
~Well Information Block
#MNEM.UNIT       Data Type    Information
#---------     -----------    ---------------------------
 STRT.F              1021.8333:
 STOP.F              4406.3335:
 STEP.F                 0.5000:
 NULL.               -999.2500:
 APD .                   31.0':  ABOVE PERMANENT DATUM
 UWI .           36-017-900042:  API WELLHOLE NUMBER
 BHT .                   162 F:  BOTTOMHOLE TEMPERATURE
 BLI .                   4387':  BOTTOM LOGGED INTERVAL
 BS  .                 17.500":  BIT SIZE
 CBD .                   1108':  CASING BOTTOM DRILLER
 CBL .                   1108':  CASING BOTTOM LOGGER
 COMP.    NORTHWEST GEOTHERMAL:  COMPANY NAME
 COUN.               DESCHUTES:  COUNTY
 CS  .                 20.000":  CASING DIAMETER
 DATE.             JUN-04-2008:  LOGGING DATE
 DFD .                    10.4:  DRILLING FLUID DENSITY
 DFL .                    10.4:  DRILLING FLUID LOSS
 DFPH.                     8.0:  DRILLING FLUID PH
 DFT .                    LSND:  DRILLING FLUID TYPE
 DFV .                    52.0:  DRILLING FLUID VISCOSITY
 DMF .                    K.B.:  DRILLING MEASURED
 EDF .               ---------:  ELEVATION OF DRILLING FLOOR
 EDIA.                  5.500":  EQUIP. DATA-DENSITY-DIAMETER
 EDOD.                 SDLT-DA:  EQUIP. DATA-DENSITY-MODEL NO.
 EDS1.                   10.0':  EQUIP. DATA-GAMMA-DISTANCE TO SOURCE
 EDSN.                 2694 GW:  EQUIP. DATA-DENSITY-SOURCE SERIAL NO.
 EDT .                     432:  EQUIP. DATA-GAMMA-DETECTOR MODEL NO.
 EDTR.                  1.5 CI:  EQUIP. DATA-DENSITY-STRENGTH
 EDUN.                     ONE:  EQUIP. DATA-DENSITY-RUN NO.
 EFWD.                      NO:  EQUIP. DATA-ACOUSTIC-FWDA
 EGL .                --------:  ELEVATION OF GROUND LEVEL
 EGMD.                    NGRT:  EQUIP. DATA-GAMMA-MODEL NO.
 EGRN.                     ONE:  EQUIP. DATA-GAMMA-RUN NO.
 EGSN.                   A-175:  EQUIP. DATA-GAMMA-SERIAL NO.
 EKB .                --------:  ELEVATION OF KELLY BUSHING
 ELGT.                 GAM-GAM:  EQUIP. DATA-DENSITY-LOG TYPE
 ELN1.                   4.00":  EQUIP. DATA-GAMMA-LENGTH
 EMIA.                  3.625":  EQUIP. DATA-GAMMA-DIAMETER
 ENER.                I714M741:  EQUIP. DATA-DENSITY-SERIAL NO.
 ENGI.             G. ROUSSEAU:  ENGINEER 1 NAME
 ENGT.                 NEU-NEU:  EQUIP. DATA-NEUTRON-LOG TYPE
 ENIA.                  3.625":  EQUIP. DATA-NEUTRON-DIAMETER
 ENOD.                  DSNT-X:  EQUIP. DATA-NEUTRON-MODEL NO.
 EPD .               ---------:  ELEVATATION OF PERMANENT DATUM
 EQLA.                      NO:  EQUIP. DATA-ACOUSTIC-LSA
 ESAT.                  CS-137:  EQUIP. DATA-DENSITY-SOURCE TYPE
 ESER.                      05:  EQUIP. DATA-NEUTRON-SERIAL NO.
 ESRT.                 AM241BE:  EQUIP. DATA-NEUTRON-SOURCE TYPE
 ESSN.                 DSN-307:  EQUIP. DATA-NEUTRON-SOURCE SERIAL NO.
 ESTR.                 15.0 CI:  EQUIP. DATA-NEUTRON-STRENGTH
 ETP1.                  SCINT.:  EQUIP. DATA-GAMMA-TYPE
 EURN.                     ONE:  EQUIP. DATA-NEUTRON-RUN NO.
 FL1 .             LAT: 43.333:  FIELD LOCATION LINE 1
 FL2 .          LONG: 121.1856:  FIELD LOCATION LINE 2
 FLD .    NEWBERRY KGRA (CASCADE RANGE):  FIELD NAME
 HDRT.                   OPENH:  HEADER TYPE
 LCL1.                       0:  LOGGING DATA-GAMMA-SCALE L 1
 LCL2.                     API:  LOGGING DATA-GAMMA-SCALE L 2
 LCR1.                     150:  LOGGING DATA-GAMMA-SCALE R 1
 LCR2.                     API:  LOGGING DATA-GAMMA-SCALE R 2
 LDL1.                    1.65:  LOGGING DATA-DENSITY-SCALE L 1
 LDL2.                    GMCC:  LOGGING DATA-DENSITY-SCALE L 2
 LDR1.                    2.65:  LOGGING DATA-DENSITY-SCALE R 1
 LDR2.                    GMCC:  LOGGING DATA-DENSITY-SCALE R 2
 LDX1.                    2.65:  LOGGING DATA-DENSITY-MATRIX 1
 LDX2.                    GMCC:  LOGGING DATA-DENSITY-MATRIX 2
 LFR1.                   4396':  LOGGING DATA-GENERAL-DEPTH FROM 1
 LMF .                    K.B.:  LOG MEASURED FROM
 LMX1.                    SAND:  LOGGING DATA-NEUTRON-MATRIX 1
 LRU1.                     ONE:  LOGGING DATA-GENERAL-RUN NO. 1
 LSL1.                     .60:  LOGGING DATA-NEUTRON-SCALE L 1
 LSL2.                       %:  LOGGING DATA-NEUTRON-SCALE L 2
 LSP1.                      60:  LOGGING DATA-GENERAL-SPEED 1
 LSR1.                       0:  LOGGING DATA-NEUTRON-SCALE R 1
 LSR2.                       %:  LOGGING DATA-NEUTRON-SCALE R 2
 LTO1.                   1108':  LOGGING DATA-GENERAL-DEPTH TO 1
 LUL .                    WDLD:  LOGGING UNIT LOCATION
 LUN .                   49599:  LOGGING UNIT NUMBER
 MCSS.                    MEAS:  MUD CAKE SAMPLE SOURCE
 MCST.                    40 F:  MUDCAKE SAMPLE TEMPERATURE
 MFSS.                    MEAS:  MUD FILTRATE SAMPLE SOURCE
 MFST.                    45 F:  MUD FILTRATE SAMPLE TEMPERATURE
 MRT .                   162 F:  MAXIMUM RECORDED TEMPERATURE
 MSS .                FLOWLINE:  SOURCE OF MUD SAMPLE
 MST .                    51 F:  MUD SAMPLE TEMPERATURE
 OS1 .                    NGRT:  OTHER SERVICES LINE 1
 OS2 .                    FIAC:  OTHER SERVICES LINE 2
 OS3 .                    HRTT:  OTHER SERVICES LINE 3
 OTH1.                      NA:  RES. EQUIP DATA: OTHER 1 (OH)
 PDAT.                    G.L.:  PERMANENT DATUM
 PGMV.                 XL v5.8:  PROGRAM VERSION
 PT1 .                      NA:  RES. EQUIP DATA: PAD TYPE 1 (OH)
 R1  .    ANNULAR HOLE VOLUME CALCULATED USING 13.375" CASING.:  REMARKS LINE 1
 R10 .    CREW: M. EMERSON, A, CARRASCO.                              RIG: NABORS NO. 633.:  REMARKS LINE 10
 R2  .    HRID-SDLT-DSNT-NGRT-FIAC-HRTT-RWCH RUN IN COMBINATION.:  REMARKS LINE 2
 R3  .    MAX. READ THERMOMETERS: 162F, AND 162 F.:  REMARKS LINE 3
 R4  .    MAX. READ FROM TEMP TOOL. 163.5 F @ 3981'.:  REMARKS LINE 4
 RANG.                     12E:  RANGE
 RMB .                   1.883:  RESISTIVITY OF MUD - BHT
 RMCS.                   5.720:  RESISTIVITY OF MUDCAKE SAMPLE
 RMFS.                   5.140:  RESISTIVITY OF MUD FILTRATE SAMPLE
 RMS .                   5.500:  RESISTIVITY OF MUD SAMPLE
 RRN1.                     ONE:  RES. EQUIP DATA: RUN NO 1 (OH)
 RUN .                     ONE:  RUN NUMBER 1
 SECT.                      29:  SECTION
 SON .                 5932371:  SERVICE/TICKET ORDER NUMBER
 PROV.                      OR:  STATE
 TCS .              1400 06-04:  TIME CIRCULATION STOPPED
 TDD .                   4409':  DRILLERS DEPTH
 TDL .                   4396':  LOGGERS DEPTH
 TLAB.              0050 06-05:  TIME LOGGING ON BOTTOM
 TLI .                   1108':  TOP LOGGED INTERVAL
 TN1 .           HRIT #211_132:  RES. EQUIP DATA: TOOL TYPE & NO. 1 (OH)
 TOWN.                     21S:  TOWNSHIP
 TPS1.                1.50" SO:  RES. EQUIP DATA: TOOL POS. 1 (OH)
 TITLE1.    HIGH RES. INDUCTION:  HEADER TITLE LINE 1
 TITLE2.      SPECTRAL DENSITY:  HEADER TITLE LINE 2
 TITLE3.    DUAL SPACED NEUTRON:  HEADER TITLE LINE 3
 TITLE4.               5"=100':  HEADER TITLE LINE 4
 WITN.              R. BALDWIN:  WITNESS 1 NAME
 WELL.               NWG 55-29:  WELL NAME
 XTP .                      TD:  MAX. REC TEMP. @ 1 (OPEN HOLE)
~Parameter Information Block
#MNEM.UNIT       Value        Description
#---------     -----------    ---------------------------
~Curve Information Block
#MNEM.UNIT                 API CODE     Curve Description
#---------               -----------    ---------------------------
 DEPT.F                 00 000 000 000:  
 DFL .OHMM              00 000 000 000:  DIGITALLY FOCUSED LATEROLOG            
 DLOD.LB                00 000 000 000:  CABLE HEAD TENSION                     
 DPHI.DECP              00 000 000 000:  DENSITY POROSITY                       
 DRHO.G/CC              00 000 000 000:  DENSITY CORRECTION                     
 FDSN.CPS               00 000 000 000:  DSN FAR COUNTS                         
 GR  .GAPI              00 000 000 000:  NATURAL GAMMA                          
 HDCN.MMHO              00 000 000 000:  HRI DEEP CONDUCTIVITY                  
 HDRS.OHMM              00 000 000 000:  HRI DEEP RESISTIVITY                   
 HMRS.OHMM              00 000 000 000:  HRI MEDIUM RESISTIVITY                 
 NDSN.CPS               00 000 000 000:  DSN NEAR COUNTS                        
 NPHI.DECP              00 000 000 000:  NEUTRON POROSITY                       
 NRAT.C/C               00 000 000 000:  DSN (NDSN/FDSN) RATIO                  
 PE  .                  00 000 000 000:  PHOTO-ELECTRIC FACTOR                  
 RHOB.G/CC              00 000 000 000:  BULK DENSITY                           
 SPA .MV                00 000 000 000:  ANALOG SPONTANEOUS POTENTIAL           
 TEMP.DEGF              00 000 000 000:  TEMPERATURE                            
 TENS.LBS               00 000 000 000:  CABLE TENSION                          
 AHVT_1ARM.FT3          00 000 000 000:  ANNULAR VOLUME TOTAL                   
 BHVT_1ARM.FT3          00 000 000 000:  BOREHOLE VOLUME TOTAL                  
 CALI_1ARM.IN           00 000 000 000:  CALIPER                                
 AHVT_4ARM.FT3          00 000 000 000:  ANNULAR VOLUME TOTAL                   
 BHVT_4ARM.FT3          00 000 000 000:  BOREHOLE VOLUME TOTAL                  
 C13 .IN                00 000 000 000:  FOUR ARM CALIPER ARMS 1 & 3            
 C24 .IN                00 000 000 000:  FOUR ARM CALIPER ARMS 2 & 4            
 CALA_4ARM.IN           00 000 000 000:  AVERAGE CALIPER (C1+C2)/2              
~A  DEPT        DFL        DLOD       DPHI       DRHO       FDSN       GR         HDCN       HDRS       HMRS       NDSN       NPHI       NRAT       PE         RHOB       SPA        TEMP       TENS     AHVT_1ARM  BHVT_1ARM  CALI_1ARM  AHVT_4ARM  BHVT_4ARM    C13        C24      CALA_4ARM
# ...
 3499.8333     5.9921  1537.5833     0.0703     0.1062  2116.6594    32.4360   141.2262     7.0808     7.9536 14749.6406     0.2646     7.1387     2.7624     2.5340   174.9012   149.3872  3280.0879  1151.1619  2032.9469    20.9683   854.6821  1739.3976    15.0588    21.7616    18.4102 
 3500.3333     5.8752  1533.2235     0.1194     0.0840  1860.7784    32.1694   153.5732     6.5116     7.5604 14123.9600     0.2965     7.8309     2.8375     2.4530   174.7355   149.4022  3275.5276  1150.4524  2031.7496    21.0029   854.2764  1738.5042    15.0226    21.7826    18.4026 
 3500.8333     5.5773  1548.9661     0.1815     0.0886  1606.8116    32.2138   160.5548     6.2284     7.2003 13547.6211     0.3375     8.6670     2.7619     2.3505   174.5508   149.4211  3302.2375  1149.7319  2030.5414    21.1943   853.8716  1737.6115    15.0565    21.7927    18.4246 
 3501.3333     5.0023  1567.8567     0.2614     0.1232  1454.7507    34.2958   168.9459     5.9191     6.5382 13067.5459     0.3632     9.1807     2.4601     2.2187   174.4014   149.4437  3319.1755  1148.9973  2029.3188    21.1863   853.4629  1736.7150    15.2213    21.7822    18.5017 
 3501.8333     4.4228  1575.8481     0.3555     0.1535  1357.2841    35.2543   184.8653     5.4093     5.7688 12762.9775     0.3863     9.6217     2.1078     2.0635   174.3090   149.4506  3322.9214  1148.2572  2028.0909    21.1943   853.0431  1735.8074    15.4764    21.7601    18.6183 
 3502.3333     3.9476  1574.3959     0.4131     0.1404  1295.5854    34.1498   193.8835     5.1577     5.3944 12698.1016     0.4080    10.0240     1.9537     1.9684   174.4068   149.4687  3320.1528  1147.5199  2026.8657    21.2156   852.6081  1734.8845    15.8499    21.7606    18.8053 
 3502.8333     3.7486  1563.4968     0.3611     0.0993  1345.7808    33.2929   180.3792     5.5439     5.5946 12867.1865     0.3965     9.7976     2.1810     2.0541   174.4693   149.4847  3297.8401  1146.7725  2025.6304    21.4256   852.1468  1733.9353    16.4745    21.6995    19.0870 
 3503.3333     3.6978  1555.2629     0.2514     0.0567  1441.8350    33.5214   155.2578     6.4409     6.1688 13144.2783     0.3718     9.3193     2.6732     2.2352   174.6160   149.4985  3289.2083  1146.0104  2024.3804    21.3645   851.6519  1732.9526    17.0394    21.5557    19.2976 
 3503.8333     3.6955  1553.5673     0.1765     0.0454  1462.6553    36.3461   143.1288     6.9867     6.6106 13319.3018     0.3709     9.2874     2.9846     2.3587   174.7899   149.5053  3293.4429  1145.2543  2023.1364    21.3326   851.1414  1731.9542    16.7493    21.5376    19.1434 
 3504.3333     3.8068  1557.6847     0.1942     0.0666  1424.2551    41.3543   149.5493     6.6868     6.4988 13208.6484     0.3802     9.4591     2.8477     2.3296   174.8958   149.5197  3284.8113  1144.5017  2021.8960    21.3060   850.6517  1730.9767    16.2434    21.6168    18.9301 
 3504.8333     4.4992  1558.4109     0.2871     0.1055  1352.4139    46.4006   163.2348     6.1261     6.1013 12852.4766     0.3929     9.7061     2.3226     2.1763   175.2109   149.5303  3290.9998  1143.7548  2020.6611    21.3246   850.1887  1730.0259    16.0035    21.6382    18.8208 
 3505.3333     5.6313  1563.2545     0.4017     0.1388  1269.0880    50.1012   174.1657     5.7417     5.9618 12450.8477     0.4084    10.0169     1.8365     1.9873   175.4065   149.5387  3295.3972  1143.0034  2019.4220    21.3432   849.7316  1729.0809    16.0477    21.6171    18.8324 
 3505.8333     6.8739  1570.7622     0.4541     0.1566  1219.2153    51.0788   173.8384     5.7525     6.2474 12186.3096     0.4169    10.1946     1.5965     1.9008   175.5396   149.5350  3300.6089  1142.2491  2018.1799    21.3512   849.2743  1728.1357    16.2131    21.4697    18.8414 
 3506.3333     7.5655  1573.4264     0.4351     0.1463  1195.2101    52.5260   164.3252     6.0855     6.7552 12126.5098     0.4253    10.3493     1.5874     1.9320   175.6918   149.5289  3310.0552  1141.4901  2016.9330    21.4416   848.8038  1727.1774    16.8405    21.4385    19.1395 
 3506.8333     7.1376  1573.1849     0.3886     0.1149  1180.1409    53.4210   154.6111     6.4678     7.3113 12179.1104     0.4370    10.5277     1.6377     2.0088   175.7244   149.5190  3288.5569  1140.7241  2015.6791    21.4469   848.2956  1726.1813    17.5296    21.5792    19.5544 
 3507.3333     6.4958  1560.8326     0.3503     0.0944  1161.0258    57.1407   147.8880     6.7619     7.9449 12263.1426     0.4547    10.7833     1.6896     2.0719   175.2707   149.5135  3267.2219  1139.9595  2014.4265    21.4389   847.7422  1725.1400    17.8438    21.6918    19.7678 
 3507.8333     5.9997  1552.5988     0.3133     0.1046  1161.2595    60.9365   140.5046     7.1172     8.5581 12358.6885     0.4621    10.8752     1.7299     2.1330   174.4938   149.4994  3264.2903  1139.1947  2013.1738    21.4416   847.1706  1724.0806    18.0397    21.6264    19.8331 
 3508.3333     5.6843  1554.0520     0.2870     0.1167  1204.5503    66.0971   130.0121     7.6916     9.0212 12444.2637     0.4436    10.5542     1.7837     2.1764   173.7087   149.5009  3272.4336  1138.4285  2011.9198    21.4150   846.5945  1723.0166    18.0549    21.5458    19.8004 
 3508.8333     5.5168  1561.0751     0.2767     0.1085  1253.7244    66.9159   117.9804     8.4760     9.4642 12517.5947     0.4236    10.1882     1.8224     2.1934   172.9018   149.5068  3296.7002  1137.6678  2010.6713    21.3405   846.0261  1721.9603    17.6406    21.5307    19.5857 
 3509.3333     5.3728  1565.1925     0.2825     0.0969  1297.4626    67.6713   108.4907     9.2174    10.0152 12582.5225     0.4095     9.8970     1.8413     2.1838   172.3558   149.5181  3298.3289  1136.9167  2009.4324    21.2315   845.4850  1720.9314    17.2398    21.5576    19.3987 
 3509.8333     5.2764  1561.3174     0.2855     0.1183  1338.9579    68.1981   107.5841     9.2951    10.1791 12627.5928     0.3960     9.6228     1.8118     2.1790   172.4889   149.5317  3275.6909  1136.1749  2008.2028    21.2927   844.9633  1719.9219    16.9450    21.6651    19.3050 
 3510.3333     5.2132  1560.3489     0.2813     0.1597  1354.3622    68.7249   118.1132     8.4665     9.6757 12643.8945     0.3908     9.5269     1.7511     2.1858   172.6818   149.5573  3283.0198  1135.4237  2006.9637    21.3698   844.4507  1718.9214    16.7800    21.7668    19.2734 
 3510.8333     5.2419  1578.9971     0.2851     0.1855  1328.7446    64.4530   136.4068     7.3310     8.9016 12625.2920     0.3990     9.6956     1.6710     2.1795   172.9453   149.5790  3317.3840  1134.6659  2005.7180    21.3698   843.9438  1717.9266    16.8053    21.7339    19.2696 
 3511.3333     5.2015  1612.1770     0.3166     0.1905  1301.0125    58.7593   156.1944     6.4023     8.0907 12568.3252     0.4070     9.8518     1.5856     2.1276   173.1300   149.5993  3366.8948  1133.9093  2004.4736    21.3538   843.4327  1716.9277    16.9704    21.7126    19.3415 
 3511.8333     5.1346  1632.7632     0.3898     0.1868  1314.0377    54.1764   167.5369     5.9688     7.5125 12509.1016     0.3997     9.7180     1.4807     2.0068   173.1056   149.6242  3386.9272  1133.1549  2003.2314    21.3299   842.9134  1715.9205    17.0798    21.7007    19.3902 
 3512.3333     4.9941  1622.8328     0.4925     0.1620  1340.9935    54.3604   162.4558     6.1555     7.3491 12470.7725     0.3877     9.4992     1.3569     1.8373   173.1328   149.6664  3350.7710  1132.4021  2001.9908    21.2980   842.3912  1714.9105    17.1051    21.7084    19.4068 
 3512.8333     4.8471  1596.1920     0.5789     0.1145  1330.5515    55.7125   148.3714     6.7398     7.4044 12441.5518     0.3900     9.5483     1.2607     1.6948   173.7576   149.7026  3306.1462  1131.6538  2000.7548    21.2927   841.8610  1713.8923    17.4674    21.7443    19.6058 
 3513.3333     4.8031  1570.5209     0.6063     0.0767  1300.5660    56.2710   139.0677     7.1907     7.4007 12436.0742     0.4010     9.7545     1.2396     1.6496   174.4666   149.7364  3272.5964  1130.9043  1999.5175    21.3086   841.3057  1712.8491    17.9832    21.7794    19.8813 
