~Version Information
 VERS.                  2.0:   CWLS log ASCII Standard -VERSION 2.0
 WRAP.                   NO:   One line per depth step
~Well Information Block
#MNEM.UNIT       Data Type    Information
#---------     -----------    ---------------------------
 STRT.F              1021.8333:
 STOP.F              4406.3335:
 STEP.F                 0.5000:
 NULL.               -999.2500:
 APD .                   31.0':  ABOVE PERMANENT DATUM
 UWI .           36-017-900042:  API WELLHOLE NUMBER
 BHT .                   162 F:  BOTTOMHOLE TEMPERATURE
 BLI .                   4387':  BOTTOM LOGGED INTERVAL
 BS  .                 17.500":  BIT SIZE
 CBD .                   1108':  CASING BOTTOM DRILLER
 CBL .                   1108':  CASING BOTTOM LOGGER
 COMP.    NORTHWEST GEOTHERMAL:  COMPANY NAME
 COUN.               DESCHUTES:  COUNTY
 CS  .                 20.000":  CASING DIAMETER
 DATE.             JUN-04-2008:  LOGGING DATE
 DFD .                    10.4:  DRILLING FLUID DENSITY
 DFL .                    10.4:  DRILLING FLUID LOSS
 DFPH.                     8.0:  DRILLING FLUID PH
 DFT .                    LSND:  DRILLING FLUID TYPE
 DFV .                    52.0:  DRILLING FLUID VISCOSITY
 DMF .                    K.B.:  DRILLING MEASURED
 EDF .               ---------:  ELEVATION OF DRILLING FLOOR
 EDIA.                  5.500":  EQUIP. DATA-DENSITY-DIAMETER
 EDOD.                 SDLT-DA:  EQUIP. DATA-DENSITY-MODEL NO.
 EDS1.                   10.0':  EQUIP. DATA-GAMMA-DISTANCE TO SOURCE
 EDSN.                 2694 GW:  EQUIP. DATA-DENSITY-SOURCE SERIAL NO.
 EDT .                     432:  EQUIP. DATA-GAMMA-DETECTOR MODEL NO.
 EDTR.                  1.5 CI:  EQUIP. DATA-DENSITY-STRENGTH
 EDUN.                     ONE:  EQUIP. DATA-DENSITY-RUN NO.
 EFWD.                      NO:  EQUIP. DATA-ACOUSTIC-FWDA
 EGL .                --------:  ELEVATION OF GROUND LEVEL
 EGMD.                    NGRT:  EQUIP. DATA-GAMMA-MODEL NO.
 EGRN.                     ONE:  EQUIP. DATA-GAMMA-RUN NO.
 EGSN.                   A-175:  EQUIP. DATA-GAMMA-SERIAL NO.
 EKB .                --------:  ELEVATION OF KELLY BUSHING
 ELGT.                 GAM-GAM:  EQUIP. DATA-DENSITY-LOG TYPE
 ELN1.                   4.00":  EQUIP. DATA-GAMMA-LENGTH
 EMIA.                  3.625":  EQUIP. DATA-GAMMA-DIAMETER
 ENER.                I714M741:  EQUIP. DATA-DENSITY-SERIAL NO.
 ENGI.             G. ROUSSEAU:  ENGINEER 1 NAME
 ENGT.                 NEU-NEU:  EQUIP. DATA-NEUTRON-LOG TYPE
 ENIA.                  3.625":  EQUIP. DATA-NEUTRON-DIAMETER
 ENOD.                  DSNT-X:  EQUIP. DATA-NEUTRON-MODEL NO.
 EPD .               ---------:  ELEVATATION OF PERMANENT DATUM
 EQLA.                      NO:  EQUIP. DATA-ACOUSTIC-LSA
 ESAT.                  CS-137:  EQUIP. DATA-DENSITY-SOURCE TYPE
 ESER.                      05:  EQUIP. DATA-NEUTRON-SERIAL NO.
 ESRT.                 AM241BE:  EQUIP. DATA-NEUTRON-SOURCE TYPE
 ESSN.                 DSN-307:  EQUIP. DATA-NEUTRON-SOURCE SERIAL NO.
 ESTR.                 15.0 CI:  EQUIP. DATA-NEUTRON-STRENGTH
 ETP1.                  SCINT.:  EQUIP. DATA-GAMMA-TYPE
 EURN.                     ONE:  EQUIP. DATA-NEUTRON-RUN NO.
 FL1 .             LAT: 43.333:  FIELD LOCATION LINE 1
 FL2 .          LONG: 121.1856:  FIELD LOCATION LINE 2
 FLD .    NEWBERRY KGRA (CASCADE RANGE):  FIELD NAME
 HDRT.                   OPENH:  HEADER TYPE
 LCL1.                       0:  LOGGING DATA-GAMMA-SCALE L 1
 LCL2.                     API:  LOGGING DATA-GAMMA-SCALE L 2
 LCR1.                     150:  LOGGING DATA-GAMMA-SCALE R 1
 LCR2.                     API:  LOGGING DATA-GAMMA-SCALE R 2
 LDL1.                    1.65:  LOGGING DATA-DENSITY-SCALE L 1
 LDL2.                    GMCC:  LOGGING DATA-DENSITY-SCALE L 2
 LDR1.                    2.65:  LOGGING DATA-DENSITY-SCALE R 1
 LDR2.                    GMCC:  LOGGING DATA-DENSITY-SCALE R 2
 LDX1.                    2.65:  LOGGING DATA-DENSITY-MATRIX 1
 LDX2.                    GMCC:  LOGGING DATA-DENSITY-MATRIX 2
 LFR1.                   4396':  LOGGING DATA-GENERAL-DEPTH FROM 1
 LMF .                    K.B.:  LOG MEASURED FROM
 LMX1.                    SAND:  LOGGING DATA-NEUTRON-MATRIX 1
 LRU1.                     ONE:  LOGGING DATA-GENERAL-RUN NO. 1
 LSL1.                     .60:  LOGGING DATA-NEUTRON-SCALE L 1
 LSL2.                       %:  LOGGING DATA-NEUTRON-SCALE L 2
 LSP1.                      60:  LOGGING DATA-GENERAL-SPEED 1
 LSR1.                       0:  LOGGING DATA-NEUTRON-SCALE R 1
 LSR2.                       %:  LOGGING DATA-NEUTRON-SCALE R 2
 LTO1.                   1108':  LOGGING DATA-GENERAL-DEPTH TO 1
 LUL .                    WDLD:  LOGGING UNIT LOCATION
 LUN .                   49599:  LOGGING UNIT NUMBER
 MCSS.                    MEAS:  MUD CAKE SAMPLE SOURCE
 MCST.                    40 F:  MUDCAKE SAMPLE TEMPERATURE
 MFSS.                    MEAS:  MUD FILTRATE SAMPLE SOURCE
 MFST.                    45 F:  MUD FILTRATE SAMPLE TEMPERATURE
 MRT .                   162 F:  MAXIMUM RECORDED TEMPERATURE
 MSS .                FLOWLINE:  SOURCE OF MUD SAMPLE
 MST .                    51 F:  MUD SAMPLE TEMPERATURE
 OS1 .                    NGRT:  OTHER SERVICES LINE 1
 OS2 .                    FIAC:  OTHER SERVICES LINE 2
 OS3 .                    HRTT:  OTHER SERVICES LINE 3
 OTH1.                      NA:  RES. EQUIP DATA: OTHER 1 (OH)
 PDAT.                    G.L.:  PERMANENT DATUM
 PGMV.                 XL v5.8:  PROGRAM VERSION
 PT1 .                      NA:  RES. EQUIP DATA: PAD TYPE 1 (OH)
 R1  .    ANNULAR HOLE VOLUME CALCULATED USING 13.375" CASING.:  REMARKS LINE 1
 R10 .    CREW: M. EMERSON, A, CARRASCO.                              RIG: NABORS NO. 633.:  REMARKS LINE 10
 R2  .    HRID-SDLT-DSNT-NGRT-FIAC-HRTT-RWCH RUN IN COMBINATION.:  REMARKS LINE 2
 R3  .    MAX. READ THERMOMETERS: 162F, AND 162 F.:  REMARKS LINE 3
 R4  .    MAX. READ FROM TEMP TOOL. 163.5 F @ 3981'.:  REMARKS LINE 4
 RANG.                     12E:  RANGE
 RMB .                   1.883:  RESISTIVITY OF MUD - BHT
 RMCS.                   5.720:  RESISTIVITY OF MUDCAKE SAMPLE
 RMFS.                   5.140:  RESISTIVITY OF MUD FILTRATE SAMPLE
 RMS .                   5.500:  RESISTIVITY OF MUD SAMPLE
 RRN1.                     ONE:  RES. EQUIP DATA: RUN NO 1 (OH)
 RUN .                     ONE:  RUN NUMBER 1
 SECT.                      29:  SECTION
 SON .                 5932371:  SERVICE/TICKET ORDER NUMBER
 PROV.                      OR:  STATE
 TCS .              1400 06-04:  TIME CIRCULATION STOPPED
 TDD .                   4409':  DRILLERS DEPTH
 TDL .                   4396':  LOGGERS DEPTH
 TLAB.              0050 06-05:  TIME LOGGING ON BOTTOM
 TLI .                   1108':  TOP LOGGED INTERVAL
 TN1 .           HRIT #211_132:  RES. EQUIP DATA: TOOL TYPE & NO. 1 (OH)
 TOWN.                     21S:  TOWNSHIP
 TPS1.                1.50" SO:  RES. EQUIP DATA: TOOL POS. 1 (OH)
 TITLE1.    HIGH RES. INDUCTION:  HEADER TITLE LINE 1
 TITLE2.      SPECTRAL DENSITY:  HEADER TITLE LINE 2
 TITLE3.    DUAL SPACED NEUTRON:  HEADER TITLE LINE 3
 TITLE4.               5"=100':  HEADER TITLE LINE 4
 WITN.              R. BALDWIN:  WITNESS 1 NAME
 WELL.               NWG 55-29:  WELL NAME
 XTP .                      TD:  MAX. REC TEMP. @ 1 (OPEN HOLE)
~Parameter Information Block
#MNEM.UNIT       Value        Description
#---------     -----------    ---------------------------
~Curve Information Block
#MNEM.UNIT                 API CODE     Curve Description
#---------               -----------    ---------------------------
 DEPT.F                 00 000 000 000:  
 DFL .OHMM              00 000 000 000:  DIGITALLY FOCUSED LATEROLOG            
 DLOD.LB                00 000 000 000:  CABLE HEAD TENSION                     
 DPHI.DECP              00 000 000 000:  DENSITY POROSITY                       
 DRHO.G/CC              00 000 000 000:  DENSITY CORRECTION                     
 FDSN.CPS               00 000 000 000:  DSN FAR COUNTS                         
 GR  .GAPI              00 000 000 000:  NATURAL GAMMA                          
 HDCN.MMHO              00 000 000 000:  HRI DEEP CONDUCTIVITY                  
 HDRS.OHMM              00 000 000 000:  HRI DEEP RESISTIVITY                   
 HMRS.OHMM              00 000 000 000:  HRI MEDIUM RESISTIVITY                 
 NDSN.CPS               00 000 000 000:  DSN NEAR COUNTS                        
 NPHI.DECP              00 000 000 000:  NEUTRON POROSITY                       
 NRAT.C/C               00 000 000 000:  DSN (NDSN/FDSN) RATIO                  
 PE  .                  00 000 000 000:  PHOTO-ELECTRIC FACTOR                  
 RHOB.G/CC              00 000 000 000:  BULK DENSITY                           
 SPA .MV                00 000 000 000:  ANALOG SPONTANEOUS POTENTIAL           
 TEMP.DEGF              00 000 000 000:  TEMPERATURE                            
 TENS.LBS               00 000 000 000:  CABLE TENSION                          
 AHVT_1ARM.FT3          00 000 000 000:  ANNULAR VOLUME TOTAL                   
 BHVT_1ARM.FT3          00 000 000 000:  BOREHOLE VOLUME TOTAL                  
 CALI_1ARM.IN           00 000 000 000:  CALIPER                                
 AHVT_4ARM.FT3          00 000 000 000:  ANNULAR VOLUME TOTAL                   
 BHVT_4ARM.FT3          00 000 000 000:  BOREHOLE VOLUME TOTAL                  
 C13 .IN                00 000 000 000:  FOUR ARM CALIPER ARMS 1 & 3            
 C24 .IN                00 000 000 000:  FOUR ARM CALIPER ARMS 2 & 4            
 CALA_4ARM.IN           00 000 000 000:  AVERAGE CALIPER (C1+C2)/2              
~A  DEPT        DFL        DLOD       DPHI       DRHO       FDSN       GR         HDCN       HDRS       HMRS       NDSN       NPHI       NRAT       PE         RHOB       SPA        TEMP       TENS     AHVT_1ARM  BHVT_1ARM  CALI_1ARM  AHVT_4ARM  BHVT_4ARM    C13        C24      CALA_4ARM
# ...
 3051.8333     3.2295  1513.3644     0.1828     0.2562  1459.2410    22.2355   361.2026     2.7685     3.2591 13077.7002     0.3601     9.1546     2.3242     2.3484   170.0630   138.8514  3079.4392  1737.2990  3056.2075    21.1145  1289.9120  2611.7351    17.4816    21.8037    19.6426 
 3052.3333     3.0376  1520.1450     0.2165     0.2300  1394.9269    23.2511   366.5472     2.7282     3.1346 12925.8066     0.3763     9.4576     2.2498     2.2928   170.0875   138.8506  3085.9539  1736.5691  3054.9900    21.2315  1289.3607  2610.6958    17.3820    21.7952    19.5886 
 3052.8333     2.8661  1517.2394     0.2154     0.1735  1407.9597    22.0895   372.2785     2.6862     3.0091 13020.0107     0.3758     9.4374     2.2536     2.2946   169.8946   138.8634  3079.4392  1735.8214  3053.7544    21.3352  1288.8159  2609.6631    17.3241    21.7997    19.5619 
 3053.3333     2.9094  1515.5438     0.1807     0.1215  1498.8972    20.4137   391.7415     2.5527     2.8635 13391.5586     0.3602     9.1303     2.3931     2.3518   169.4491   138.8785  3082.8594  1735.0730  3052.5183    21.1411  1288.2776  2608.6370    17.0529    21.7912    19.4221 
 3053.8333     3.1572  1522.3254     0.1378     0.0854  1665.7156    20.0900   425.0833     2.3525     2.7151 13954.1006     0.3336     8.5977     2.6558     2.4226   169.5523   138.8913  3087.5825  1734.3419  3051.2993    21.1092  1287.7555  2607.6272    16.8280    21.7878    19.3079 
 3054.3333     3.3664  1526.6842     0.1101     0.0683  1836.2050    21.4992   441.6147     2.2644     2.5969 14385.3193     0.3061     8.0245     2.8596     2.4684   169.4898   138.8996  3085.6279  1733.6122  3050.0815    21.2448  1287.2465  2606.6301    16.6466    21.7935    19.2201 
 3054.8333     3.2262  1524.2625     0.1241     0.0684  1857.7830    21.7721   478.7905     2.0886     2.4426 14331.9297     0.3002     7.8801     2.8527     2.4452   169.3703   138.8964  3069.6672  1732.8612  3048.8425    21.4602  1286.7450  2605.6409    16.6478    21.8119    19.2299 
 3055.3333     2.6858  1522.3254     0.1751     0.0804  1699.3839    22.7877   562.6752     1.7772     2.1958 13791.9902     0.3239     8.3470     2.6776     2.3611   169.4980   138.8895  3069.6672  1732.0975  3047.5911    21.5293  1286.2410  2604.6489    16.7390    21.8164    19.2777 
 3055.8333     2.1359  1529.5908     0.2193     0.0882  1453.9968    24.6856   712.3378     1.4038     1.9269 13128.1104     0.3755     9.3462     2.4939     2.2882   169.4192   138.8895  3094.7485  1731.3210  3046.3267    21.5346  1285.7323  2603.6523    16.7487    21.8090    19.2789 
 3056.3333     1.7438  1539.2780     0.2220     0.0878  1272.5173    25.3013   774.6706     1.2909     1.7412 12756.2891     0.4258    10.2844     2.4332     2.2836   169.3350   138.9130  3112.8262  1730.5442  3045.0620    21.5373  1285.2218  2602.6541    16.9489    21.8144    19.3817 
 3056.8333     1.6330  1535.4028     0.1873     0.0928  1253.4641    22.9908   761.1060     1.3139     1.6623 12794.0479     0.4337    10.4281     2.4290     2.3409   169.3105   138.9328  3108.1035  1729.7671  3043.7969    21.5373  1284.6968  2601.6411    17.2391    21.8043    19.5217 
 3057.3333     1.8048  1515.7861     0.1512     0.0955  1358.0619    20.0583   731.4601     1.3671     1.6895 13096.8867     0.4037     9.8840     2.4720     2.4006   169.3893   138.9593  3081.7192  1728.9900  3042.5317    21.5373  1284.1591  2600.6157    17.2404    21.8116    19.5260 
 3057.8333     2.2580  1496.8956     0.1264     0.0884  1485.8333    19.7917   644.5800     1.5514     1.7896 13481.9736     0.3713     9.2856     2.5220     2.4414   169.4219   138.9949  3063.3154  1728.2129  3041.2666    21.5373  1283.6260  2599.5947    16.8918    21.8249    19.3583 
 3058.3333     2.7511  1491.0825     0.1201     0.0874  1550.6779    21.3214   596.7739     1.6757     1.9157 13725.8535     0.3583     9.0335     2.5564     2.4519   169.4274   139.0101  3061.1982  1727.4358  3040.0015    21.5373  1283.1130  2598.5940    16.7105    21.8236    19.2671 
 3058.8333     2.8594  1487.4498     0.1369     0.1108  1523.6113    22.5909   598.5587     1.6707     1.9803 13666.8613     0.3662     9.1725     2.4797     2.4242   169.6338   139.0125  3062.6641  1726.6588  3038.7366    21.5160  1282.6105  2597.6035    16.5287    21.8151    19.1719 
 3059.3333     2.5534  1496.4109     0.1755     0.1411  1398.7678    22.8321   657.2071     1.5216     1.9654 13322.8516     0.4006     9.7981     2.3324     2.3604   169.7588   139.0117  3080.2534  1725.8842  3037.4739    21.5293  1282.1163  2596.6213    16.4579    21.8163    19.1371 
 3059.8333     2.0795  1509.2469     0.2075     0.1507  1242.8168    22.6671   712.9587     1.4026     1.8791 12888.4238     0.4475    10.6368     2.2084     2.3076   169.9408   139.0010  3100.2859  1725.1075  3036.2092    21.5373  1281.6255  2595.6426    16.4471    21.8242    19.1356 
 3060.3333     1.7604  1517.9656     0.2166     0.1328  1154.8987    21.8991   731.1307     1.3677     1.7212 12580.6943     0.4749    11.1139     2.2124     2.2927   170.2831   139.0001  3106.9634  1724.3304  3034.9441    21.5373  1281.1344  2594.6636    16.5137    21.8162    19.1649 
 3060.8333     1.5984  1516.7546     0.2088     0.1119  1131.9364    22.0768   689.3871     1.4506     1.5677 12428.1660     0.4792    11.1969     2.2849     2.3055   170.4515   139.0106  3092.3052  1723.5533  3033.6790    21.5373  1280.6378  2593.6792    16.6982    21.8139    19.2561 
 3061.3333     1.5240  1504.6448     0.2089     0.1193  1127.3293    22.1974   658.1378     1.5194     1.5210 12365.3730     0.4776    11.1850     2.3487     2.3053   170.5167   139.0279  3073.5759  1722.7762  3032.4138    21.5373  1280.1299  2592.6836    16.8352    21.8202    19.3277 
 3061.8333     1.5420  1496.4109     0.2155     0.1599  1136.3876    22.4386   644.8706     1.5507     1.5828 12393.4365     0.4735    11.1249     2.3206     2.2944   170.5792   139.0444  3065.1069  1721.9991  3031.1487    21.5373  1279.6162  2591.6819    16.8011    21.8065    19.3038 
 3062.3333     1.7085  1501.9816     0.2043     0.1937  1197.5406    21.7658   627.4639     1.5937     1.7448 12568.3057     0.4517    10.7435     2.2602     2.3130   170.4597   139.0664  3077.6477  1721.2220  3029.8835    21.5373  1279.1082  2590.6860    16.6222    21.8034    19.2128 
 3062.8333     2.0568  1510.7002     0.1714     0.1883  1343.2937    22.3561   560.9554     1.7827     2.0376 12871.3574     0.4041     9.8783     2.2187     2.3671   170.3483   139.0899  3092.3052  1720.4449  3028.6184    21.5373  1278.6093  2589.6992    16.5245    21.8001    19.1623 
 3063.3333     2.7245  1520.1450     0.1412     0.1567  1538.9054    24.1334   469.8902     2.1282     2.4811 13206.4697     0.3485     8.8346     2.2697     2.4170   170.1798   139.1201  3107.4517  1719.6678  3027.3533    21.5373  1278.1152  2588.7173    16.4717    21.8060    19.1389 
 3063.8333     3.8583  1525.7157     0.1185     0.1256  1703.2930    25.3204   380.5578     2.6277     3.0922 13491.2803     0.3108     8.1009     2.3809     2.4544   169.7751   139.1466  3124.2268  1718.8907  3026.0881    21.5373  1277.6237  2587.7378    16.4646    21.8081    19.1364 
 3064.3333     5.3357  1524.5048     0.0880     0.1114  1797.0101    26.0504   306.4857     3.2628     3.9050 13662.3691     0.2942     7.7601     2.5294     2.5048   169.7968   139.1792  3118.0378  1718.1136  3024.8230    21.5373  1277.1321  2586.7585    16.4566    21.8059    19.1312 
 3064.8333     6.6889  1514.5753     0.0608     0.1063  1818.4756    26.4502   265.8909     3.7609     4.6531 13711.1562     0.2914     7.6924     2.6284     2.5498   169.8240   139.2064  3095.8882  1717.3365  3023.5579    21.5373  1276.6407  2585.7793    16.5023    21.8171    19.1597 
 3065.3333     6.8725  1498.3479     0.0571     0.1036  1772.9287    26.8248   274.6237     3.6413     4.6001 13585.3125     0.2981     7.8234     2.7033     2.5558   169.8729   139.2298  3067.2244  1716.5594  3022.2927    21.5373  1276.1451  2584.7957    16.6215    21.8234    19.2225 
