~Version Information
 VERS.                  2.0:   CWLS log ASCII Standard -VERSION 2.0
 WRAP.                   NO:   One line per depth step
~Well Information Block
#MNEM.UNIT       Data Type    Information
#---------     -----------    ---------------------------
 STRT.F              1021.8333:
 STOP.F              4406.3335:
 STEP.F                 0.5000:
 NULL.               -999.2500:
 APD .                   31.0':  ABOVE PERMANENT DATUM
 UWI .           36-017-900042:  API WELLHOLE NUMBER
 BHT .                   162 F:  BOTTOMHOLE TEMPERATURE
 BLI .                   4387':  BOTTOM LOGGED INTERVAL
 BS  .                 17.500":  BIT SIZE
 CBD .                   1108':  CASING BOTTOM DRILLER
 CBL .                   1108':  CASING BOTTOM LOGGER
 COMP.    NORTHWEST GEOTHERMAL:  COMPANY NAME
 COUN.               DESCHUTES:  COUNTY
 CS  .                 20.000":  CASING DIAMETER
 DATE.             JUN-04-2008:  LOGGING DATE
 DFD .                    10.4:  DRILLING FLUID DENSITY
 DFL .                    10.4:  DRILLING FLUID LOSS
 DFPH.                     8.0:  DRILLING FLUID PH
 DFT .                    LSND:  DRILLING FLUID TYPE
 DFV .                    52.0:  DRILLING FLUID VISCOSITY
 DMF .                    K.B.:  DRILLING MEASURED
 EDF .               ---------:  ELEVATION OF DRILLING FLOOR
 EDIA.                  5.500":  EQUIP. DATA-DENSITY-DIAMETER
 EDOD.                 SDLT-DA:  EQUIP. DATA-DENSITY-MODEL NO.
 EDS1.                   10.0':  EQUIP. DATA-GAMMA-DISTANCE TO SOURCE
 EDSN.                 2694 GW:  EQUIP. DATA-DENSITY-SOURCE SERIAL NO.
 EDT .                     432:  EQUIP. DATA-GAMMA-DETECTOR MODEL NO.
 EDTR.                  1.5 CI:  EQUIP. DATA-DENSITY-STRENGTH
 EDUN.                     ONE:  EQUIP. DATA-DENSITY-RUN NO.
 EFWD.                      NO:  EQUIP. DATA-ACOUSTIC-FWDA
 EGL .                --------:  ELEVATION OF GROUND LEVEL
 EGMD.                    NGRT:  EQUIP. DATA-GAMMA-MODEL NO.
 EGRN.                     ONE:  EQUIP. DATA-GAMMA-RUN NO.
 EGSN.                   A-175:  EQUIP. DATA-GAMMA-SERIAL NO.
 EKB .                --------:  ELEVATION OF KELLY BUSHING
 ELGT.                 GAM-GAM:  EQUIP. DATA-DENSITY-LOG TYPE
 ELN1.                   4.00":  EQUIP. DATA-GAMMA-LENGTH
 EMIA.                  3.625":  EQUIP. DATA-GAMMA-DIAMETER
 ENER.                I714M741:  EQUIP. DATA-DENSITY-SERIAL NO.
 ENGI.             G. ROUSSEAU:  ENGINEER 1 NAME
 ENGT.                 NEU-NEU:  EQUIP. DATA-NEUTRON-LOG TYPE
 ENIA.                  3.625":  EQUIP. DATA-NEUTRON-DIAMETER
 ENOD.                  DSNT-X:  EQUIP. DATA-NEUTRON-MODEL NO.
 EPD .               ---------:  ELEVATATION OF PERMANENT DATUM
 EQLA.                      NO:  EQUIP. DATA-ACOUSTIC-LSA
 ESAT.                  CS-137:  EQUIP. DATA-DENSITY-SOURCE TYPE
 ESER.                      05:  EQUIP. DATA-NEUTRON-SERIAL NO.
 ESRT.                 AM241BE:  EQUIP. DATA-NEUTRON-SOURCE TYPE
 ESSN.                 DSN-307:  EQUIP. DATA-NEUTRON-SOURCE SERIAL NO.
 ESTR.                 15.0 CI:  EQUIP. DATA-NEUTRON-STRENGTH
 ETP1.                  SCINT.:  EQUIP. DATA-GAMMA-TYPE
 EURN.                     ONE:  EQUIP. DATA-NEUTRON-RUN NO.
 FL1 .             LAT: 43.333:  FIELD LOCATION LINE 1
 FL2 .          LONG: 121.1856:  FIELD LOCATION LINE 2
 FLD .    NEWBERRY KGRA (CASCADE RANGE):  FIELD NAME
 HDRT.                   OPENH:  HEADER TYPE
 LCL1.                       0:  LOGGING DATA-GAMMA-SCALE L 1
 LCL2.                     API:  LOGGING DATA-GAMMA-SCALE L 2
 LCR1.                     150:  LOGGING DATA-GAMMA-SCALE R 1
 LCR2.                     API:  LOGGING DATA-GAMMA-SCALE R 2
 LDL1.                    1.65:  LOGGING DATA-DENSITY-SCALE L 1
 LDL2.                    GMCC:  LOGGING DATA-DENSITY-SCALE L 2
 LDR1.                    2.65:  LOGGING DATA-DENSITY-SCALE R 1
 LDR2.                    GMCC:  LOGGING DATA-DENSITY-SCALE R 2
 LDX1.                    2.65:  LOGGING DATA-DENSITY-MATRIX 1
 LDX2.                    GMCC:  LOGGING DATA-DENSITY-MATRIX 2
 LFR1.                   4396':  LOGGING DATA-GENERAL-DEPTH FROM 1
 LMF .                    K.B.:  LOG MEASURED FROM
 LMX1.                    SAND:  LOGGING DATA-NEUTRON-MATRIX 1
 LRU1.                     ONE:  LOGGING DATA-GENERAL-RUN NO. 1
 LSL1.                     .60:  LOGGING DATA-NEUTRON-SCALE L 1
 LSL2.                       %:  LOGGING DATA-NEUTRON-SCALE L 2
 LSP1.                      60:  LOGGING DATA-GENERAL-SPEED 1
 LSR1.                       0:  LOGGING DATA-NEUTRON-SCALE R 1
 LSR2.                       %:  LOGGING DATA-NEUTRON-SCALE R 2
 LTO1.                   1108':  LOGGING DATA-GENERAL-DEPTH TO 1
 LUL .                    WDLD:  LOGGING UNIT LOCATION
 LUN .                   49599:  LOGGING UNIT NUMBER
 MCSS.                    MEAS:  MUD CAKE SAMPLE SOURCE
 MCST.                    40 F:  MUDCAKE SAMPLE TEMPERATURE
 MFSS.                    MEAS:  MUD FILTRATE SAMPLE SOURCE
 MFST.                    45 F:  MUD FILTRATE SAMPLE TEMPERATURE
 MRT .                   162 F:  MAXIMUM RECORDED TEMPERATURE
 MSS .                FLOWLINE:  SOURCE OF MUD SAMPLE
 MST .                    51 F:  MUD SAMPLE TEMPERATURE
 OS1 .                    NGRT:  OTHER SERVICES LINE 1
 OS2 .                    FIAC:  OTHER SERVICES LINE 2
 OS3 .                    HRTT:  OTHER SERVICES LINE 3
 OTH1.                      NA:  RES. EQUIP DATA: OTHER 1 (OH)
 PDAT.                    G.L.:  PERMANENT DATUM
 PGMV.                 XL v5.8:  PROGRAM VERSION
 PT1 .                      NA:  RES. EQUIP DATA: PAD TYPE 1 (OH)
 R1  .    ANNULAR HOLE VOLUME CALCULATED USING 13.375" CASING.:  REMARKS LINE 1
 R10 .    CREW: M. EMERSON, A, CARRASCO.                              RIG: NABORS NO. 633.:  REMARKS LINE 10
 R2  .    HRID-SDLT-DSNT-NGRT-FIAC-HRTT-RWCH RUN IN COMBINATION.:  REMARKS LINE 2
 R3  .    MAX. READ THERMOMETERS: 162F, AND 162 F.:  REMARKS LINE 3
 R4  .    MAX. READ FROM TEMP TOOL. 163.5 F @ 3981'.:  REMARKS LINE 4
 RANG.                     12E:  RANGE
 RMB .                   1.883:  RESISTIVITY OF MUD - BHT
 RMCS.                   5.720:  RESISTIVITY OF MUDCAKE SAMPLE
 RMFS.                   5.140:  RESISTIVITY OF MUD FILTRATE SAMPLE
 RMS .                   5.500:  RESISTIVITY OF MUD SAMPLE
 RRN1.                     ONE:  RES. EQUIP DATA: RUN NO 1 (OH)
 RUN .                     ONE:  RUN NUMBER 1
 SECT.                      29:  SECTION
 SON .                 5932371:  SERVICE/TICKET ORDER NUMBER
 PROV.                      OR:  STATE
 TCS .              1400 06-04:  TIME CIRCULATION STOPPED
 TDD .                   4409':  DRILLERS DEPTH
 TDL .                   4396':  LOGGERS DEPTH
 TLAB.              0050 06-05:  TIME LOGGING ON BOTTOM
 TLI .                   1108':  TOP LOGGED INTERVAL
 TN1 .           HRIT #211_132:  RES. EQUIP DATA: TOOL TYPE & NO. 1 (OH)
 TOWN.                     21S:  TOWNSHIP
 TPS1.                1.50" SO:  RES. EQUIP DATA: TOOL POS. 1 (OH)
 TITLE1.    HIGH RES. INDUCTION:  HEADER TITLE LINE 1
 TITLE2.      SPECTRAL DENSITY:  HEADER TITLE LINE 2
 TITLE3.    DUAL SPACED NEUTRON:  HEADER TITLE LINE 3
 TITLE4.               5"=100':  HEADER TITLE LINE 4
 WITN.              R. BALDWIN:  WITNESS 1 NAME
 WELL.               NWG 55-29:  WELL NAME
 XTP .                      TD:  MAX. REC TEMP. @ 1 (OPEN HOLE)
~Parameter Information Block
#MNEM.UNIT       Value        Description
#---------     -----------    ---------------------------
~Curve Information Block
#MNEM.UNIT                 API CODE     Curve Description
#---------               -----------    ---------------------------
 DEPT.F                 00 000 000 000:  
 DFL .OHMM              00 000 000 000:  DIGITALLY FOCUSED LATEROLOG            
 DLOD.LB                00 000 000 000:  CABLE HEAD TENSION                     
 DPHI.DECP              00 000 000 000:  DENSITY POROSITY                       
 DRHO.G/CC              00 000 000 000:  DENSITY CORRECTION                     
 FDSN.CPS               00 000 000 000:  DSN FAR COUNTS                         
 GR  .GAPI              00 000 000 000:  NATURAL GAMMA                          
 HDCN.MMHO              00 000 000 000:  HRI DEEP CONDUCTIVITY                  
 HDRS.OHMM              00 000 000 000:  HRI DEEP RESISTIVITY                   
 HMRS.OHMM              00 000 000 000:  HRI MEDIUM RESISTIVITY                 
 NDSN.CPS               00 000 000 000:  DSN NEAR COUNTS                        
 NPHI.DECP              00 000 000 000:  NEUTRON POROSITY                       
 NRAT.C/C               00 000 000 000:  DSN (NDSN/FDSN) RATIO                  
 PE  .                  00 000 000 000:  PHOTO-ELECTRIC FACTOR                  
 RHOB.G/CC              00 000 000 000:  BULK DENSITY                           
 SPA .MV                00 000 000 000:  ANALOG SPONTANEOUS POTENTIAL           
 TEMP.DEGF              00 000 000 000:  TEMPERATURE                            
 TENS.LBS               00 000 000 000:  CABLE TENSION                          
 AHVT_1ARM.FT3          00 000 000 000:  ANNULAR VOLUME TOTAL                   
 BHVT_1ARM.FT3          00 000 000 000:  BOREHOLE VOLUME TOTAL                  
 CALI_1ARM.IN           00 000 000 000:  CALIPER                                
 AHVT_4ARM.FT3          00 000 000 000:  ANNULAR VOLUME TOTAL                   
 BHVT_4ARM.FT3          00 000 000 000:  BOREHOLE VOLUME TOTAL                  
 C13 .IN                00 000 000 000:  FOUR ARM CALIPER ARMS 1 & 3            
 C24 .IN                00 000 000 000:  FOUR ARM CALIPER ARMS 2 & 4            
 CALA_4ARM.IN           00 000 000 000:  AVERAGE CALIPER (C1+C2)/2              
~A  DEPT        DFL        DLOD       DPHI       DRHO       FDSN       GR         HDCN       HDRS       HMRS       NDSN       NPHI       NRAT       PE         RHOB       SPA        TEMP       TENS     AHVT_1ARM  BHVT_1ARM  CALI_1ARM  AHVT_4ARM  BHVT_4ARM    C13        C24      CALA_4ARM
# ...
 2589.8333     1.6080  1596.6768     0.7833     0.0216   866.9540    24.3365   873.4421     1.1449     1.4044 11335.7598     0.6390    13.3539     0.9812     1.3576   177.7482   134.0173  2855.5007  2313.5298  4083.2151    20.9125  1877.7960  3650.4058    21.6325    21.8361    21.7343 
 2590.3333     1.6615  1590.6223     0.8028     0.0152   855.3895    20.3756   831.6700     1.2024     1.4388 11355.3682     0.6626    13.5558     0.9723     1.3253   177.8134   133.9793  2850.6147  2312.8252  4082.0222    20.9098  1876.9958  3649.1179    21.6182    21.8353    21.7267 
 2590.8333     1.7318  1584.5677     0.8105     0.0128   845.4030    17.6208   773.6350     1.2926     1.5236 11336.3066     0.6752    13.6849     0.9672     1.3127   177.8542   133.9325  2848.8232  2312.1208  4080.8301    20.9125  1876.1967  3647.8311    21.5988    21.8273    21.7130 
 2591.3333     1.8405  1580.6927     0.8052     0.0148   854.5430    18.3381   698.6930     1.4312     1.6641 11290.4561     0.6453    13.4774     0.9791     1.3215   177.9492   133.8688  2839.5398  2311.4165  4079.6377    20.9071  1875.3988  3646.5454    21.6032    21.8230    21.7131 
 2591.8333     2.0228  1583.3569     0.7914     0.0200   862.3697    19.6901   606.4836     1.6488     1.8353 11262.4902     0.6253    13.3193     1.0300     1.3441   177.9547   133.8126  2837.5854  2310.7124  4078.4458    20.9071  1874.6010  3645.2598    21.6050    21.8178    21.7114 
 2592.3333     2.2246  1589.6538     0.7666     0.0348   864.5552    21.0548   531.8738     1.8801     1.9992 11269.9150     0.6252    13.2991     1.1214     1.3851   178.0009   133.7603  2834.4912  2310.0083  4077.2539    20.9018  1873.8031  3643.9741    21.6069    21.8320    21.7195 
 2592.8333     2.3229  1590.1376     0.7351     0.0543   869.2007    21.3976   501.4840     1.9941     2.1177 11309.1348     0.6240    13.2770     1.2267     1.4371   178.1313   133.7309  2829.6052  2309.3044  4076.0623    20.9018  1873.0043  3642.6873    21.6068    21.8475    21.7271 
 2593.3333     2.2345  1588.4429     0.7065     0.0695   874.6207    20.8454   506.7839     1.9732     2.1462 11348.4434     0.6185    13.2382     1.3073     1.4843   178.0959   133.7311  2830.9080  2308.6011  4074.8711    20.8992  1872.2046  3641.3999    21.6055    21.8423    21.7239 
 2593.8333     2.0293  1583.3569     0.6781     0.0819   881.5145    18.1477   538.0868     1.8584     2.0753 11371.0020     0.6083    13.1571     1.3684     1.5311   178.1367   133.7389  2819.9961  2307.8979  4073.6802    20.8992  1871.4058  3640.1130    21.6132    21.8259    21.7196 
 2594.3333     1.8686  1579.7233     0.6366     0.0996   890.8963    16.6687   587.0665     1.7034     1.9662 11404.4072     0.5982    13.0539     1.4480     1.5996   178.0389   133.7573  2808.7583  2307.1948  4072.4893    20.8992  1870.6071  3638.8264    21.6033    21.8242    21.7138 
 2594.8333     1.8256  1578.7548     0.5649     0.1205   914.4514    16.8083   617.3660     1.6198     1.9161 11482.1250     0.5819    12.8197     1.5832     1.7180   177.8188   133.7731  2808.4326  2306.4922  4071.2986    20.8859  1869.8091  3637.5405    21.6096    21.8222    21.7159 
 2595.3333     1.9159  1583.3569     0.4533     0.1268   966.4635    17.3415   580.7798     1.7218     1.9758 11622.6846     0.5470    12.2965     1.8541     1.9020   177.7482   133.7958  2815.1101  2305.7913  4070.1099    20.8487  1869.0110  3636.2546    21.5960    21.8206    21.7083 
 2595.8333     2.1096  1591.1061     0.3267     0.1025  1016.5117    16.9289   502.0828     1.9917     2.1712 11795.0889     0.5186    11.8480     2.2632     2.1110   177.6368   133.8301  2834.1653  2305.0955  4068.9263    20.7636  1868.2137  3634.9695    21.5673    21.8164    21.6919 
 2596.3333     2.3747  1592.0756     0.2299     0.0691  1030.0029    15.2913   429.9114     2.3261     2.4718 11926.4639     0.5200    11.8143     2.6603     2.2707   177.5771   133.8727  2848.0085  2304.4158  4067.7588    20.3913  1867.4222  3633.6902    21.1127    21.8125    21.4626 
 2596.8333     2.6810  1593.0441     0.1772     0.0702  1028.9209    14.2883   370.6785     2.6978     2.8448 11966.4297     0.5265    11.8649     2.8181     2.3575   177.7591   133.9404  2841.0056  2303.7900  4066.6453    19.7319  1866.6676  3632.4478    19.9808    21.8157    20.8982 
 2597.3333     3.0414  1586.2625     0.1545     0.1105  1034.5898    14.1677   333.9574     2.9944     3.2591 11933.7871     0.5213    11.7681     2.6564     2.3950   177.9954   134.0407  2836.9341  2303.2371  4065.6042    19.0220  1865.9899  3631.2822    18.3742    21.8236    20.0989 
 2597.8333     3.5133  1580.6927     0.1387     0.1497  1047.9225    15.3738   306.2463     3.2653     3.7177 11899.7910     0.5094    11.5905     2.4239     2.4211   178.2698   134.1432  2830.9080  2302.7412  4064.6206    18.7960  1865.4027  3630.2070    17.2813    21.8246    19.5530 
 2598.3333     4.2058  1581.4188     0.1213     0.1516  1085.4480    17.1828   264.0007     3.7879     4.3998 11916.7676     0.4845    11.2119     2.3564     2.4498   178.6338   134.2349  2834.3281  2302.2734  4063.6650    18.4318  1864.8674  3629.1841    17.0166    21.8205    19.4186 
 2598.8333     5.0713  1585.0515     0.1097     0.1229  1135.2037    18.5729   216.2561     4.6241     5.4272 12003.7803     0.4578    10.7910     2.4835     2.4691   178.8756   134.2989  2844.5886  2301.8391  4062.7429    18.2829  1864.3408  3628.1694    17.1284    21.8257    19.4771 
 2599.3333     5.8327  1588.2004     0.1118     0.0916  1182.8035    19.2458   192.1699     5.2037     6.2681 12140.5830     0.4391    10.4767     2.7099     2.4655   178.9815   134.3204  2840.1914  2301.4163  4061.8323    18.2297  1863.8077  3627.1487    17.1788    21.8299    19.5043 
 2599.8333     6.1608  1588.4429     0.1132     0.0696  1224.7281    20.1027   201.3755     4.9658     6.2646 12307.8389     0.4263    10.2534     2.9303     2.4632   179.0603   134.3358  2842.1458  2301.0002  4060.9285    18.1659  1863.2714  3626.1248    17.2952    21.8309    19.5631 
 2600.3333     6.2273  1586.7472     0.0956     0.0546  1268.6848    21.7086   211.9640     4.7178     6.1544 12497.5273     0.4156    10.0586     3.1879     2.4923   179.1092   134.3565  2842.3086  2300.5806  4060.0210    18.5887  1862.7272  3625.0928    17.4521    21.8222    19.6371 
 2600.8333     6.3151  1585.0515     0.0628     0.0454  1339.4022    23.0416   196.8254     5.0806     6.6400 12659.0986     0.3933     9.6594     3.4125     2.5463   178.9978   134.3931  2834.6541  2300.1030  4059.0557    19.0619  1862.1760  3624.0540    17.4356    21.8263    19.6310 
 2601.3333     6.8895  1582.1450     0.0367     0.0423  1404.7327    22.7179   163.5914     6.1128     7.7144 12759.5723     0.3711     9.2674     3.5661     2.5894   179.0005   134.4310  2828.1394  2299.5996  4058.0645    19.1417  1861.6284  3623.0188    17.2313    21.8387    19.5350 
 2601.8333     7.6433  1577.7863     0.0243     0.0455  1419.9316    21.7467   141.5472     7.0648     8.4431 12778.1523     0.3662     9.1781     3.5978     2.6098   179.0576   134.4683  2814.9473  2299.0806  4057.0576    19.4634  1861.0914  3621.9939    17.4356    21.8398    19.6377 
 2602.3333     8.2717  1576.8176     0.0301     0.0611  1381.6753    21.1945   144.3719     6.9266     8.0286 12666.5391     0.3765     9.3565     3.4337     2.6004   179.1826   134.4911  2807.1301  2298.5291  4056.0183    19.6735  1860.5303  3620.9448    18.1954    21.8292    20.0123 
 2602.8333     7.9632  1579.7233     0.0659     0.0940  1294.8958    21.5436   177.5740     5.6315     6.6401 12422.9141     0.4030     9.8184     3.0830     2.5413   179.3836   134.4948  2815.7620  2297.9722  4054.9736    19.2374  1859.9227  3619.8496    18.6217    21.8153    20.2185 
 2603.3333     6.8975  1583.1145     0.1163     0.1402  1179.6373    22.0197   231.2799     4.3238     5.1983 12117.3682     0.4437    10.5232     2.6180     2.4580   179.5140   134.4870  2819.3450  2297.4563  4053.9700    18.8279  1859.3080  3618.7471    18.1179    21.8190    19.9684 
