~Version Information
 VERS.                  2.0:   CWLS log ASCII Standard -VERSION 2.0
 WRAP.                   NO:   One line per depth step
~Well Information Block
#MNEM.UNIT       Data Type    Information
#---------     -----------    ---------------------------
 STRT.F              1021.8333:
 STOP.F              4406.3335:
 STEP.F                 0.5000:
 NULL.               -999.2500:
 APD .                   31.0':  ABOVE PERMANENT DATUM
 UWI .           36-017-900042:  API WELLHOLE NUMBER
 BHT .                   162 F:  BOTTOMHOLE TEMPERATURE
 BLI .                   4387':  BOTTOM LOGGED INTERVAL
 BS  .                 17.500":  BIT SIZE
 CBD .                   1108':  CASING BOTTOM DRILLER
 CBL .                   1108':  CASING BOTTOM LOGGER
 COMP.    NORTHWEST GEOTHERMAL:  COMPANY NAME
 COUN.               DESCHUTES:  COUNTY
 CS  .                 20.000":  CASING DIAMETER
 DATE.             JUN-04-2008:  LOGGING DATE
 DFD .                    10.4:  DRILLING FLUID DENSITY
 DFL .                    10.4:  DRILLING FLUID LOSS
 DFPH.                     8.0:  DRILLING FLUID PH
 DFT .                    LSND:  DRILLING FLUID TYPE
 DFV .                    52.0:  DRILLING FLUID VISCOSITY
 DMF .                    K.B.:  DRILLING MEASURED
 EDF .               ---------:  ELEVATION OF DRILLING FLOOR
 EDIA.                  5.500":  EQUIP. DATA-DENSITY-DIAMETER
 EDOD.                 SDLT-DA:  EQUIP. DATA-DENSITY-MODEL NO.
 EDS1.                   10.0':  EQUIP. DATA-GAMMA-DISTANCE TO SOURCE
 EDSN.                 2694 GW:  EQUIP. DATA-DENSITY-SOURCE SERIAL NO.
 EDT .                     432:  EQUIP. DATA-GAMMA-DETECTOR MODEL NO.
 EDTR.                  1.5 CI:  EQUIP. DATA-DENSITY-STRENGTH
 EDUN.                     ONE:  EQUIP. DATA-DENSITY-RUN NO.
 EFWD.                      NO:  EQUIP. DATA-ACOUSTIC-FWDA
 EGL .                --------:  ELEVATION OF GROUND LEVEL
 EGMD.                    NGRT:  EQUIP. DATA-GAMMA-MODEL NO.
 EGRN.                     ONE:  EQUIP. DATA-GAMMA-RUN NO.
 EGSN.                   A-175:  EQUIP. DATA-GAMMA-SERIAL NO.
 EKB .                --------:  ELEVATION OF KELLY BUSHING
 ELGT.                 GAM-GAM:  EQUIP. DATA-DENSITY-LOG TYPE
 ELN1.                   4.00":  EQUIP. DATA-GAMMA-LENGTH
 EMIA.                  3.625":  EQUIP. DATA-GAMMA-DIAMETER
 ENER.                I714M741:  EQUIP. DATA-DENSITY-SERIAL NO.
 ENGI.             G. ROUSSEAU:  ENGINEER 1 NAME
 ENGT.                 NEU-NEU:  EQUIP. DATA-NEUTRON-LOG TYPE
 ENIA.                  3.625":  EQUIP. DATA-NEUTRON-DIAMETER
 ENOD.                  DSNT-X:  EQUIP. DATA-NEUTRON-MODEL NO.
 EPD .               ---------:  ELEVATATION OF PERMANENT DATUM
 EQLA.                      NO:  EQUIP. DATA-ACOUSTIC-LSA
 ESAT.                  CS-137:  EQUIP. DATA-DENSITY-SOURCE TYPE
 ESER.                      05:  EQUIP. DATA-NEUTRON-SERIAL NO.
 ESRT.                 AM241BE:  EQUIP. DATA-NEUTRON-SOURCE TYPE
 ESSN.                 DSN-307:  EQUIP. DATA-NEUTRON-SOURCE SERIAL NO.
 ESTR.                 15.0 CI:  EQUIP. DATA-NEUTRON-STRENGTH
 ETP1.                  SCINT.:  EQUIP. DATA-GAMMA-TYPE
 EURN.                     ONE:  EQUIP. DATA-NEUTRON-RUN NO.
 FL1 .             LAT: 43.333:  FIELD LOCATION LINE 1
 FL2 .          LONG: 121.1856:  FIELD LOCATION LINE 2
 FLD .    NEWBERRY KGRA (CASCADE RANGE):  FIELD NAME
 HDRT.                   OPENH:  HEADER TYPE
 LCL1.                       0:  LOGGING DATA-GAMMA-SCALE L 1
 LCL2.                     API:  LOGGING DATA-GAMMA-SCALE L 2
 LCR1.                     150:  LOGGING DATA-GAMMA-SCALE R 1
 LCR2.                     API:  LOGGING DATA-GAMMA-SCALE R 2
 LDL1.                    1.65:  LOGGING DATA-DENSITY-SCALE L 1
 LDL2.                    GMCC:  LOGGING DATA-DENSITY-SCALE L 2
 LDR1.                    2.65:  LOGGING DATA-DENSITY-SCALE R 1
 LDR2.                    GMCC:  LOGGING DATA-DENSITY-SCALE R 2
 LDX1.                    2.65:  LOGGING DATA-DENSITY-MATRIX 1
 LDX2.                    GMCC:  LOGGING DATA-DENSITY-MATRIX 2
 LFR1.                   4396':  LOGGING DATA-GENERAL-DEPTH FROM 1
 LMF .                    K.B.:  LOG MEASURED FROM
 LMX1.                    SAND:  LOGGING DATA-NEUTRON-MATRIX 1
 LRU1.                     ONE:  LOGGING DATA-GENERAL-RUN NO. 1
 LSL1.                     .60:  LOGGING DATA-NEUTRON-SCALE L 1
 LSL2.                       %:  LOGGING DATA-NEUTRON-SCALE L 2
 LSP1.                      60:  LOGGING DATA-GENERAL-SPEED 1
 LSR1.                       0:  LOGGING DATA-NEUTRON-SCALE R 1
 LSR2.                       %:  LOGGING DATA-NEUTRON-SCALE R 2
 LTO1.                   1108':  LOGGING DATA-GENERAL-DEPTH TO 1
 LUL .                    WDLD:  LOGGING UNIT LOCATION
 LUN .                   49599:  LOGGING UNIT NUMBER
 MCSS.                    MEAS:  MUD CAKE SAMPLE SOURCE
 MCST.                    40 F:  MUDCAKE SAMPLE TEMPERATURE
 MFSS.                    MEAS:  MUD FILTRATE SAMPLE SOURCE
 MFST.                    45 F:  MUD FILTRATE SAMPLE TEMPERATURE
 MRT .                   162 F:  MAXIMUM RECORDED TEMPERATURE
 MSS .                FLOWLINE:  SOURCE OF MUD SAMPLE
 MST .                    51 F:  MUD SAMPLE TEMPERATURE
 OS1 .                    NGRT:  OTHER SERVICES LINE 1
 OS2 .                    FIAC:  OTHER SERVICES LINE 2
 OS3 .                    HRTT:  OTHER SERVICES LINE 3
 OTH1.                      NA:  RES. EQUIP DATA: OTHER 1 (OH)
 PDAT.                    G.L.:  PERMANENT DATUM
 PGMV.                 XL v5.8:  PROGRAM VERSION
 PT1 .                      NA:  RES. EQUIP DATA: PAD TYPE 1 (OH)
 R1  .    ANNULAR HOLE VOLUME CALCULATED USING 13.375" CASING.:  REMARKS LINE 1
 R10 .    CREW: M. EMERSON, A, CARRASCO.                              RIG: NABORS NO. 633.:  REMARKS LINE 10
 R2  .    HRID-SDLT-DSNT-NGRT-FIAC-HRTT-RWCH RUN IN COMBINATION.:  REMARKS LINE 2
 R3  .    MAX. READ THERMOMETERS: 162F, AND 162 F.:  REMARKS LINE 3
 R4  .    MAX. READ FROM TEMP TOOL. 163.5 F @ 3981'.:  REMARKS LINE 4
 RANG.                     12E:  RANGE
 RMB .                   1.883:  RESISTIVITY OF MUD - BHT
 RMCS.                   5.720:  RESISTIVITY OF MUDCAKE SAMPLE
 RMFS.                   5.140:  RESISTIVITY OF MUD FILTRATE SAMPLE
 RMS .                   5.500:  RESISTIVITY OF MUD SAMPLE
 RRN1.                     ONE:  RES. EQUIP DATA: RUN NO 1 (OH)
 RUN .                     ONE:  RUN NUMBER 1
 SECT.                      29:  SECTION
 SON .                 5932371:  SERVICE/TICKET ORDER NUMBER
 PROV.                      OR:  STATE
 TCS .              1400 06-04:  TIME CIRCULATION STOPPED
 TDD .                   4409':  DRILLERS DEPTH
 TDL .                   4396':  LOGGERS DEPTH
 TLAB.              0050 06-05:  TIME LOGGING ON BOTTOM
 TLI .                   1108':  TOP LOGGED INTERVAL
 TN1 .           HRIT #211_132:  RES. EQUIP DATA: TOOL TYPE & NO. 1 (OH)
 TOWN.                     21S:  TOWNSHIP
 TPS1.                1.50" SO:  RES. EQUIP DATA: TOOL POS. 1 (OH)
 TITLE1.    HIGH RES. INDUCTION:  HEADER TITLE LINE 1
 TITLE2.      SPECTRAL DENSITY:  HEADER TITLE LINE 2
 TITLE3.    DUAL SPACED NEUTRON:  HEADER TITLE LINE 3
 TITLE4.               5"=100':  HEADER TITLE LINE 4
 WITN.              R. BALDWIN:  WITNESS 1 NAME
 WELL.               NWG 55-29:  WELL NAME
 XTP .                      TD:  MAX. REC TEMP. @ 1 (OPEN HOLE)
~Parameter Information Block
#MNEM.UNIT       Value        Description
#---------     -----------    ---------------------------
~Curve Information Block
#MNEM.UNIT                 API CODE     Curve Description
#---------               -----------    ---------------------------
 DEPT.F                 00 000 000 000:  
 DFL .OHMM              00 000 000 000:  DIGITALLY FOCUSED LATEROLOG            
 DLOD.LB                00 000 000 000:  CABLE HEAD TENSION                     
 DPHI.DECP              00 000 000 000:  DENSITY POROSITY                       
 DRHO.G/CC              00 000 000 000:  DENSITY CORRECTION                     
 FDSN.CPS               00 000 000 000:  DSN FAR COUNTS                         
 GR  .GAPI              00 000 000 000:  NATURAL GAMMA                          
 HDCN.MMHO              00 000 000 000:  HRI DEEP CONDUCTIVITY                  
 HDRS.OHMM              00 000 000 000:  HRI DEEP RESISTIVITY                   
 HMRS.OHMM              00 000 000 000:  HRI MEDIUM RESISTIVITY                 
 NDSN.CPS               00 000 000 000:  DSN NEAR COUNTS                        
 NPHI.DECP              00 000 000 000:  NEUTRON POROSITY                       
 NRAT.C/C               00 000 000 000:  DSN (NDSN/FDSN) RATIO                  
 PE  .                  00 000 000 000:  PHOTO-ELECTRIC FACTOR                  
 RHOB.G/CC              00 000 000 000:  BULK DENSITY                           
 SPA .MV                00 000 000 000:  ANALOG SPONTANEOUS POTENTIAL           
 TEMP.DEGF              00 000 000 000:  TEMPERATURE                            
 TENS.LBS               00 000 000 000:  CABLE TENSION                          
 AHVT_1ARM.FT3          00 000 000 000:  ANNULAR VOLUME TOTAL                   
 BHVT_1ARM.FT3          00 000 000 000:  BOREHOLE VOLUME TOTAL                  
 CALI_1ARM.IN           00 000 000 000:  CALIPER                                
 AHVT_4ARM.FT3          00 000 000 000:  ANNULAR VOLUME TOTAL                   
 BHVT_4ARM.FT3          00 000 000 000:  BOREHOLE VOLUME TOTAL                  
 C13 .IN                00 000 000 000:  FOUR ARM CALIPER ARMS 1 & 3            
 C24 .IN                00 000 000 000:  FOUR ARM CALIPER ARMS 2 & 4            
 CALA_4ARM.IN           00 000 000 000:  AVERAGE CALIPER (C1+C2)/2              
~A  DEPT        DFL        DLOD       DPHI       DRHO       FDSN       GR         HDCN       HDRS       HMRS       NDSN       NPHI       NRAT       PE         RHOB       SPA        TEMP       TENS     AHVT_1ARM  BHVT_1ARM  CALI_1ARM  AHVT_4ARM  BHVT_4ARM    C13        C24      CALA_4ARM
# ...
 2365.8333    36.3652  1523.0515    -0.0268     0.1128  1105.9290    22.4196    31.9856    31.2640    41.8348 11694.5391     0.4475    10.7883     3.0354     2.6942   173.4669   129.4587  2761.2021  2560.8772  4549.1201    20.0537  2169.3572  4160.5137    18.6866    21.6950    20.1908 
 2366.3333    40.5155  1524.2625    -0.0337     0.1315  1098.3700    23.8795    35.3116    28.3193    36.2139 11666.3584     0.4511    10.8382     2.8728     2.7056   174.0673   129.4542  2751.5930  2560.2773  4548.0322    19.4209  2168.7397  4159.4082    18.6374    21.7595    20.1984 
 2366.8333    43.0384  1520.8721    -0.0347     0.1491  1103.5807    24.1905    37.0813    26.9678    33.5078 11637.4443     0.4467    10.7591     2.7777     2.7072   174.3634   129.4390  2747.3589  2559.7590  4547.0264    18.8758  2168.1174  4158.2983    18.8697    21.8071    20.3384 
 2367.3333    41.9481  1523.2939    -0.0147     0.1697  1088.9932    24.6475    38.5170    25.9626    29.8350 11607.4014     0.4543    10.8802     2.6825     2.6742   174.4476   129.4252  2744.5901  2559.2751  4546.0547    18.7056  2167.4807  4157.1738    19.0132    21.8189    20.4161 
 2367.8333    39.5018  1522.8092     0.0169     0.1840  1057.2848    24.1588    40.5054    24.6881    27.0114 11592.8633     0.4736    11.1907     2.5904     2.6221   174.4585   129.4043  2735.3069  2558.8159  4545.1079    18.5169  2166.8352  4156.0405    19.0709    21.8207    20.4458 
 2368.3333    37.3736  1516.9971     0.0354     0.1878  1053.9601    24.5396    40.5289    24.6738    27.4852 11615.5146     0.4769    11.2455     2.5814     2.5916   174.4666   129.3811  2728.1406  2558.3699  4544.1743    18.4956  2166.1909  4154.9082    18.8671    21.8315    20.3493 
 2368.8333    35.0232  1515.5438     0.0289     0.1735  1057.0184    25.5045    39.6669    25.2099    29.6007 11659.6182     0.4770    11.2547     2.7325     2.6023   174.4883   129.3535  2721.4631  2557.9265  4543.2432    18.4557  2165.5605  4153.7900    18.5140    21.8393    20.1766 
 2369.3333    28.9144  1515.5438     0.0180     0.1281  1046.5992    27.2627    44.4312    22.5067    27.4719 11711.5645     0.4861    11.4138     2.9860     2.6204   174.5264   129.3306  2724.2319  2557.4844  4542.3135    18.5435  2164.9495  4152.6914    18.3055    21.8387    20.0721 
 2369.8333    21.5698  1515.5438     0.0231     0.0797  1033.9817    26.9263    57.0050    17.5423    21.2680 11737.2188     0.4957    11.5775     3.2265     2.6119   174.5997   129.2976  2721.4631  2557.0222  4541.3638    19.0859  2164.3459  4151.6006    18.5050    21.8213    20.1632 
 2370.3333    17.0933  1516.5123     0.0323     0.0657  1033.3784    24.1524    69.1632    14.4586    16.8234 11720.3926     0.4952    11.5733     3.3454     2.5966   174.8415   129.2804  2725.6978  2556.5134  4540.3672    19.4873  2163.7278  4150.4946    18.8000    21.7902    20.2951 
 2370.8333    15.3296  1516.2699     0.0370     0.0708  1037.5872    20.8390    73.3889    13.6260    15.1029 11688.3193     0.4906    11.5000     3.4120     2.5889   175.2626   129.2750  2734.8181  2555.9624  4539.3286    19.7107  2163.0959  4149.3750    18.9272    21.7720    20.3496 
 2371.3333    16.0370  1513.3644     0.0412     0.0622  1021.8319    19.1696    69.2221    14.4463    15.8258 11648.7490     0.4996    11.6334     3.4992     2.5820   175.6048   129.2782  2735.6326  2555.3782  4538.2563    20.0643  2162.4612  4148.2524    18.8390    21.7828    20.3109 
 2371.8333    17.9105  1515.0591     0.0413     0.0586  1016.0543    19.8361    62.1260    16.0963    18.2749 11613.9922     0.5015    11.6578     3.4760     2.5818   175.8738   129.2798  2742.4729  2554.7734  4537.1636    19.7506  2161.8298  4147.1333    18.8140    21.8100    20.3120 
 2372.3333    19.8740  1519.1765     0.0446     0.0775  1033.9421    21.8038    59.8540    16.7073    19.6967 11580.5264     0.4867    11.4239     3.2463     2.5764   176.0014   129.2859  2743.6125  2554.2207  4536.1230    19.0087  2161.1982  4146.0137    18.8446    21.8342    20.3394 
 2372.8333    20.6797  1517.2394     0.0370     0.1163  1048.4448    21.5626    63.3247    15.7916    18.9508 11536.0176     0.4741    11.2225     2.8686     2.5889   175.9471   129.3035  2732.0496  2553.7349  4535.1494    18.7056  2160.5620  4144.8896    18.9552    21.8573    20.4063 
 2373.3333    20.7342  1520.6298     0.0265     0.1527  1042.7131    21.4293    68.3744    14.6254    17.8184 11510.9639     0.4774    11.2661     2.5756     2.6063   175.8004   129.3362  2733.0266  2553.2668  4534.1938    18.7774  2159.9175  4143.7573    19.1383    21.8570    20.4977 
 2373.8333    20.6010  1518.6918     0.0228     0.1727  1022.1613    21.0548    71.9893    13.8909    17.0255 11519.3887     0.4927    11.5012     2.4635     2.6124   175.6239   129.3781  2729.2808  2552.8015  4533.2402    18.4371  2159.2629  4142.6152    19.2015    21.8469    20.5242 
 2374.3333    21.0501  1519.1765     0.0180     0.1663  1029.9399    22.8766    74.1189    13.4918    16.5707 11556.0918     0.4896    11.4517     2.5691     2.6202   175.4663   129.4157  2732.0496  2552.3711  4532.3218    18.2058  2158.6094  4141.4741    18.9936    21.8207    20.4072 
 2374.8333    21.1529  1523.7777     0.0096     0.1238  1068.7710    23.6383    77.1818    12.9564    16.6063 11616.6074     0.4665    11.0924     2.8619     2.6342   175.3712   129.4479  2744.9155  2551.9563  4531.4189    18.1420  2157.9709  4140.3481    18.7223    21.8141    20.2682 
 2375.3333    20.4272  1528.8636    -0.0083     0.0874  1092.7065    23.7652    80.6217    12.4036    17.4760 11671.8174     0.4531    10.8937     3.1458     2.6637   175.3223   129.4632  2752.8962  2551.5461  4530.5210    18.1872  2157.3467  4139.2363    18.6139    21.8031    20.2085 
 2375.8333    18.7793  1538.5518    -0.0111     0.1026  1088.6458    23.6002    79.9038    12.5151    18.4387 11711.7041     0.4574    10.9756     3.1944     2.6684   175.4228   129.4647  2776.6743  2551.1223  4529.6089    18.6232  2156.7261  4138.1279    18.7786    21.7236    20.2511 
 2376.3333    17.4820  1551.3879    -0.0048     0.1620  1073.4778    24.2540    77.3567    12.9271    17.7300 11738.2510     0.4683    11.1579     2.9285     2.6579   175.5858   129.4494  2815.1101  2550.6401  4528.6387    19.4634  2156.0989  4137.0127    18.9540    21.6059    20.2800 
 2376.8333    16.5850  1565.6763    -0.0035     0.1998  1069.2697    24.7618    80.2121    12.4669    14.6583 11735.8955     0.4709    11.1985     2.7030     2.6558   175.7407   129.4480  2840.0286  2550.0774  4527.5879    19.9553  2155.4692  4135.8950    18.9271    21.6483    20.2877 
 2377.3333    15.2905  1569.0675     0.0011     0.1729  1060.4410    24.6348    91.5596    10.9219    11.4139 11707.1748     0.4765    11.2762     2.7089     2.6481   175.9797   129.4687  2844.1001  2549.4797  4526.5024    19.8782  2154.8391  4134.7773    18.8304    21.7466    20.2885 
 2377.8333    13.0666  1563.0131     0.0282     0.1184  1033.9159    23.1749   111.9334     8.9339     8.6259 11652.0820     0.4924    11.5175     2.8732     2.6035   176.1971   129.4970  2823.4163  2548.8906  4525.4258    19.8011  2154.2095  4133.6597    18.7762    21.8276    20.3019 
 2378.3333    10.5238  1550.9031     0.0729     0.1048  1030.5356    22.0133   144.3762     6.9264     6.6267 11569.2480     0.4892    11.4654     2.8755     2.5297   176.4578   129.5153  2788.0747  2548.3186  4524.3657    19.4155  2153.5786  4132.5415    18.8086    21.7919    20.3003 
 2378.8333     8.7189  1537.0985     0.1141     0.1353  1026.5815    19.8805   160.2863     6.2388     6.4164 11478.3018     0.4863    11.4174     2.6493     2.4617   176.6236   129.5669  2762.6682  2547.7795  4523.3389    19.3677  2152.9487  4131.4238    18.8606    21.7490    20.3048 
 2379.3333     7.6620  1529.8331     0.1526     0.1570   986.4673    17.9572   113.2956     8.8265    11.0115 11399.8916     0.5122    11.8045     2.3941     2.3982   176.8192   129.6406  2752.5706  2547.2563  4522.3281    19.0539  2152.3159  4130.3032    18.9599    21.6885    20.3242 
