~Version Information
 VERS.                  2.0:   CWLS log ASCII Standard -VERSION 2.0
 WRAP.                   NO:   One line per depth step
~Well Information Block
#MNEM.UNIT       Data Type    Information
#---------     -----------    ---------------------------
 STRT.F              1021.8333:
 STOP.F              4406.3335:
 STEP.F                 0.5000:
 NULL.               -999.2500:
 APD .                   31.0':  ABOVE PERMANENT DATUM
 UWI .           36-017-900042:  API WELLHOLE NUMBER
 BHT .                   162 F:  BOTTOMHOLE TEMPERATURE
 BLI .                   4387':  BOTTOM LOGGED INTERVAL
 BS  .                 17.500":  BIT SIZE
 CBD .                   1108':  CASING BOTTOM DRILLER
 CBL .                   1108':  CASING BOTTOM LOGGER
 COMP.    NORTHWEST GEOTHERMAL:  COMPANY NAME
 COUN.               DESCHUTES:  COUNTY
 CS  .                 20.000":  CASING DIAMETER
 DATE.             JUN-04-2008:  LOGGING DATE
 DFD .                    10.4:  DRILLING FLUID DENSITY
 DFL .                    10.4:  DRILLING FLUID LOSS
 DFPH.                     8.0:  DRILLING FLUID PH
 DFT .                    LSND:  DRILLING FLUID TYPE
 DFV .                    52.0:  DRILLING FLUID VISCOSITY
 DMF .                    K.B.:  DRILLING MEASURED
 EDF .               ---------:  ELEVATION OF DRILLING FLOOR
 EDIA.                  5.500":  EQUIP. DATA-DENSITY-DIAMETER
 EDOD.                 SDLT-DA:  EQUIP. DATA-DENSITY-MODEL NO.
 EDS1.                   10.0':  EQUIP. DATA-GAMMA-DISTANCE TO SOURCE
 EDSN.                 2694 GW:  EQUIP. DATA-DENSITY-SOURCE SERIAL NO.
 EDT .                     432:  EQUIP. DATA-GAMMA-DETECTOR MODEL NO.
 EDTR.                  1.5 CI:  EQUIP. DATA-DENSITY-STRENGTH
 EDUN.                     ONE:  EQUIP. DATA-DENSITY-RUN NO.
 EFWD.                      NO:  EQUIP. DATA-ACOUSTIC-FWDA
 EGL .                --------:  ELEVATION OF GROUND LEVEL
 EGMD.                    NGRT:  EQUIP. DATA-GAMMA-MODEL NO.
 EGRN.                     ONE:  EQUIP. DATA-GAMMA-RUN NO.
 EGSN.                   A-175:  EQUIP. DATA-GAMMA-SERIAL NO.
 EKB .                --------:  ELEVATION OF KELLY BUSHING
 ELGT.                 GAM-GAM:  EQUIP. DATA-DENSITY-LOG TYPE
 ELN1.                   4.00":  EQUIP. DATA-GAMMA-LENGTH
 EMIA.                  3.625":  EQUIP. DATA-GAMMA-DIAMETER
 ENER.                I714M741:  EQUIP. DATA-DENSITY-SERIAL NO.
 ENGI.             G. ROUSSEAU:  ENGINEER 1 NAME
 ENGT.                 NEU-NEU:  EQUIP. DATA-NEUTRON-LOG TYPE
 ENIA.                  3.625":  EQUIP. DATA-NEUTRON-DIAMETER
 ENOD.                  DSNT-X:  EQUIP. DATA-NEUTRON-MODEL NO.
 EPD .               ---------:  ELEVATATION OF PERMANENT DATUM
 EQLA.                      NO:  EQUIP. DATA-ACOUSTIC-LSA
 ESAT.                  CS-137:  EQUIP. DATA-DENSITY-SOURCE TYPE
 ESER.                      05:  EQUIP. DATA-NEUTRON-SERIAL NO.
 ESRT.                 AM241BE:  EQUIP. DATA-NEUTRON-SOURCE TYPE
 ESSN.                 DSN-307:  EQUIP. DATA-NEUTRON-SOURCE SERIAL NO.
 ESTR.                 15.0 CI:  EQUIP. DATA-NEUTRON-STRENGTH
 ETP1.                  SCINT.:  EQUIP. DATA-GAMMA-TYPE
 EURN.                     ONE:  EQUIP. DATA-NEUTRON-RUN NO.
 FL1 .             LAT: 43.333:  FIELD LOCATION LINE 1
 FL2 .          LONG: 121.1856:  FIELD LOCATION LINE 2
 FLD .    NEWBERRY KGRA (CASCADE RANGE):  FIELD NAME
 HDRT.                   OPENH:  HEADER TYPE
 LCL1.                       0:  LOGGING DATA-GAMMA-SCALE L 1
 LCL2.                     API:  LOGGING DATA-GAMMA-SCALE L 2
 LCR1.                     150:  LOGGING DATA-GAMMA-SCALE R 1
 LCR2.                     API:  LOGGING DATA-GAMMA-SCALE R 2
 LDL1.                    1.65:  LOGGING DATA-DENSITY-SCALE L 1
 LDL2.                    GMCC:  LOGGING DATA-DENSITY-SCALE L 2
 LDR1.                    2.65:  LOGGING DATA-DENSITY-SCALE R 1
 LDR2.                    GMCC:  LOGGING DATA-DENSITY-SCALE R 2
 LDX1.                    2.65:  LOGGING DATA-DENSITY-MATRIX 1
 LDX2.                    GMCC:  LOGGING DATA-DENSITY-MATRIX 2
 LFR1.                   4396':  LOGGING DATA-GENERAL-DEPTH FROM 1
 LMF .                    K.B.:  LOG MEASURED FROM
 LMX1.                    SAND:  LOGGING DATA-NEUTRON-MATRIX 1
 LRU1.                     ONE:  LOGGING DATA-GENERAL-RUN NO. 1
 LSL1.                     .60:  LOGGING DATA-NEUTRON-SCALE L 1
 LSL2.                       %:  LOGGING DATA-NEUTRON-SCALE L 2
 LSP1.                      60:  LOGGING DATA-GENERAL-SPEED 1
 LSR1.                       0:  LOGGING DATA-NEUTRON-SCALE R 1
 LSR2.                       %:  LOGGING DATA-NEUTRON-SCALE R 2
 LTO1.                   1108':  LOGGING DATA-GENERAL-DEPTH TO 1
 LUL .                    WDLD:  LOGGING UNIT LOCATION
 LUN .                   49599:  LOGGING UNIT NUMBER
 MCSS.                    MEAS:  MUD CAKE SAMPLE SOURCE
 MCST.                    40 F:  MUDCAKE SAMPLE TEMPERATURE
 MFSS.                    MEAS:  MUD FILTRATE SAMPLE SOURCE
 MFST.                    45 F:  MUD FILTRATE SAMPLE TEMPERATURE
 MRT .                   162 F:  MAXIMUM RECORDED TEMPERATURE
 MSS .                FLOWLINE:  SOURCE OF MUD SAMPLE
 MST .                    51 F:  MUD SAMPLE TEMPERATURE
 OS1 .                    NGRT:  OTHER SERVICES LINE 1
 OS2 .                    FIAC:  OTHER SERVICES LINE 2
 OS3 .                    HRTT:  OTHER SERVICES LINE 3
 OTH1.                      NA:  RES. EQUIP DATA: OTHER 1 (OH)
 PDAT.                    G.L.:  PERMANENT DATUM
 PGMV.                 XL v5.8:  PROGRAM VERSION
 PT1 .                      NA:  RES. EQUIP DATA: PAD TYPE 1 (OH)
 R1  .    ANNULAR HOLE VOLUME CALCULATED USING 13.375" CASING.:  REMARKS LINE 1
 R10 .    CREW: M. EMERSON, A, CARRASCO.                              RIG: NABORS NO. 633.:  REMARKS LINE 10
 R2  .    HRID-SDLT-DSNT-NGRT-FIAC-HRTT-RWCH RUN IN COMBINATION.:  REMARKS LINE 2
 R3  .    MAX. READ THERMOMETERS: 162F, AND 162 F.:  REMARKS LINE 3
 R4  .    MAX. READ FROM TEMP TOOL. 163.5 F @ 3981'.:  REMARKS LINE 4
 RANG.                     12E:  RANGE
 RMB .                   1.883:  RESISTIVITY OF MUD - BHT
 RMCS.                   5.720:  RESISTIVITY OF MUDCAKE SAMPLE
 RMFS.                   5.140:  RESISTIVITY OF MUD FILTRATE SAMPLE
 RMS .                   5.500:  RESISTIVITY OF MUD SAMPLE
 RRN1.                     ONE:  RES. EQUIP DATA: RUN NO 1 (OH)
 RUN .                     ONE:  RUN NUMBER 1
 SECT.                      29:  SECTION
 SON .                 5932371:  SERVICE/TICKET ORDER NUMBER
 PROV.                      OR:  STATE
 TCS .              1400 06-04:  TIME CIRCULATION STOPPED
 TDD .                   4409':  DRILLERS DEPTH
 TDL .                   4396':  LOGGERS DEPTH
 TLAB.              0050 06-05:  TIME LOGGING ON BOTTOM
 TLI .                   1108':  TOP LOGGED INTERVAL
 TN1 .           HRIT #211_132:  RES. EQUIP DATA: TOOL TYPE & NO. 1 (OH)
 TOWN.                     21S:  TOWNSHIP
 TPS1.                1.50" SO:  RES. EQUIP DATA: TOOL POS. 1 (OH)
 TITLE1.    HIGH RES. INDUCTION:  HEADER TITLE LINE 1
 TITLE2.      SPECTRAL DENSITY:  HEADER TITLE LINE 2
 TITLE3.    DUAL SPACED NEUTRON:  HEADER TITLE LINE 3
 TITLE4.               5"=100':  HEADER TITLE LINE 4
 WITN.              R. BALDWIN:  WITNESS 1 NAME
 WELL.               NWG 55-29:  WELL NAME
 XTP .                      TD:  MAX. REC TEMP. @ 1 (OPEN HOLE)
~Parameter Information Block
#MNEM.UNIT       Value        Description
#---------     -----------    ---------------------------
~Curve Information Block
#MNEM.UNIT                 API CODE     Curve Description
#---------               -----------    ---------------------------
 DEPT.F                 00 000 000 000:  
 DFL .OHMM              00 000 000 000:  DIGITALLY FOCUSED LATEROLOG            
 DLOD.LB                00 000 000 000:  CABLE HEAD TENSION                     
 DPHI.DECP              00 000 000 000:  DENSITY POROSITY                       
 DRHO.G/CC              00 000 000 000:  DENSITY CORRECTION                     
 FDSN.CPS               00 000 000 000:  DSN FAR COUNTS                         
 GR  .GAPI              00 000 000 000:  NATURAL GAMMA                          
 HDCN.MMHO              00 000 000 000:  HRI DEEP CONDUCTIVITY                  
 HDRS.OHMM              00 000 000 000:  HRI DEEP RESISTIVITY                   
 HMRS.OHMM              00 000 000 000:  HRI MEDIUM RESISTIVITY                 
 NDSN.CPS               00 000 000 000:  DSN NEAR COUNTS                        
 NPHI.DECP              00 000 000 000:  NEUTRON POROSITY                       
 NRAT.C/C               00 000 000 000:  DSN (NDSN/FDSN) RATIO                  
 PE  .                  00 000 000 000:  PHOTO-ELECTRIC FACTOR                  
 RHOB.G/CC              00 000 000 000:  BULK DENSITY                           
 SPA .MV                00 000 000 000:  ANALOG SPONTANEOUS POTENTIAL           
 TEMP.DEGF              00 000 000 000:  TEMPERATURE                            
 TENS.LBS               00 000 000 000:  CABLE TENSION                          
 AHVT_1ARM.FT3          00 000 000 000:  ANNULAR VOLUME TOTAL                   
 BHVT_1ARM.FT3          00 000 000 000:  BOREHOLE VOLUME TOTAL                  
 CALI_1ARM.IN           00 000 000 000:  CALIPER                                
 AHVT_4ARM.FT3          00 000 000 000:  ANNULAR VOLUME TOTAL                   
 BHVT_4ARM.FT3          00 000 000 000:  BOREHOLE VOLUME TOTAL                  
 C13 .IN                00 000 000 000:  FOUR ARM CALIPER ARMS 1 & 3            
 C24 .IN                00 000 000 000:  FOUR ARM CALIPER ARMS 2 & 4            
 CALA_4ARM.IN           00 000 000 000:  AVERAGE CALIPER (C1+C2)/2              
~A  DEPT        DFL        DLOD       DPHI       DRHO       FDSN       GR         HDCN       HDRS       HMRS       NDSN       NPHI       NRAT       PE         RHOB       SPA        TEMP       TENS     AHVT_1ARM  BHVT_1ARM  CALI_1ARM  AHVT_4ARM  BHVT_4ARM    C13        C24      CALA_4ARM
# ...
 2141.8333    13.5386  1520.1450     0.5107     0.1505   863.3634    20.3503    39.5369    25.2928    19.4707 11176.9932     0.6261    13.2238     1.5288     1.8073   167.1889   127.6877  2675.2095  2803.4431  5010.2456    20.0430  2460.6843  4670.3994    19.1076    21.8235    20.4656 
 2142.3333    13.2321  1522.5668     0.4453     0.1870   834.5568    20.9342    34.4114    29.0602    22.7883 11184.0762     0.6829    13.6902     1.6289     1.9152   166.5478   127.6326  2678.3042  2802.8420  5009.1567    19.9500  2460.0330  4669.2607    19.1614    21.8395    20.5005 
 2142.8333    12.9035  1526.1995     0.4071     0.2149   831.3472    22.8004    44.3608    22.5424    18.8274 11188.5908     0.6913    13.7462     1.7116     1.9783   165.8659   127.5721  2686.2847  2802.2454  5008.0728    19.8755  2459.3806  4668.1201    19.0407    21.8331    20.4369 
 2143.3333    12.2979  1527.4114     0.3883     0.2343   865.8106    23.8668    58.0017    17.2409    14.5286 11188.0146     0.6295    13.2004     1.7689     2.0093   165.0754   127.5041  2683.6785  2801.6753  5007.0151    19.2268  2458.7393  4666.9907    18.6369    21.8416    20.2393 
 2143.8333    11.5117  1521.8406     0.3584     0.2540   886.9100    22.9337    65.5879    15.2467    12.7548 11198.4775     0.5927    12.8797     1.8172     2.0587   164.4234   127.4178  2668.2065  2801.1567  5006.0093    19.1763  2458.1240  4665.8872    18.1782    21.8241    20.0012 
 2144.3333    10.8391  1519.4188     0.3191     0.2648   889.9640    20.8898    68.5334    14.5914    12.2660 11229.8682     0.5915    12.8732     1.8668     2.1234   163.8448   127.3300  2660.3892  2800.6418  5005.0068    19.1683  2457.5352  4664.8105    17.8930    21.8197    19.8563 
 2144.8333    10.4772  1514.3329     0.3079     0.2481   909.3981    20.0837    69.5490    14.3784    12.2560 11270.7393     0.5765    12.6611     1.8836     2.1420   163.3748   127.2240  2655.9917  2800.1279  5004.0049    19.1603  2456.9595  4663.7471    17.9093    21.8075    19.8584 
 2145.3333    10.3929  1517.2394     0.3264     0.2194   924.4617    20.0329    69.7288    14.3413    12.4117 11281.7393     0.5631    12.4750     1.8658     2.1114   163.4373   127.1255  2658.7605  2799.6147  5003.0039    19.1576  2456.3794  4662.6787    18.0664    21.8326    19.9495 
 2145.8333    10.3911  1516.9971     0.3646     0.1906   906.0032    20.7565    69.2375    14.4430    12.7170 11257.7441     0.5790    12.6971     1.8289     2.0485   163.9698   127.0362  2666.4150  2799.1018  5002.0029    19.1311  2455.7913  4661.6030    18.0879    21.8224    19.9552 
 2146.3333    10.5589  1521.1135     0.3971     0.1798   889.2961    22.2926    66.5538    15.0254    13.4748 11228.4375     0.5931    12.8903     1.7990     1.9948   164.8092   126.9699  2670.3240  2798.5933  5001.0068    19.1098  2455.2029  4660.5269    18.0706    21.8146    19.9426 
 2146.8333    11.0220  1516.2699     0.4256     0.1797   877.1766    24.2921    60.8611    16.4309    14.9990 11207.1572     0.6056    13.0438     1.7723     1.9478   165.5943   126.9349  2667.0667  2798.0833  5000.0088    19.1816  2454.6155  4659.4517    18.1411    21.7989    19.9700 
 2147.3333    11.9998  1516.0276     0.4609     0.1785   864.2919    25.0347    55.4885    18.0217    16.5617 11199.3770     0.6188    13.2186     1.7172     1.8895   166.1322   126.9312  2669.1838  2797.5671  4999.0049    19.1975  2454.0222  4658.3711    18.3265    21.7934    20.0600 
 2147.8333    13.2263  1516.5123     0.5210     0.1570   876.9010    24.9078    54.9925    18.1843    16.3526 11191.3438     0.6044    13.0321     1.6282     1.7903   166.4989   126.9443  2664.6235  2797.0503  4998.0000    19.1922  2453.4170  4657.2783    18.5546    21.7966    20.1756 
 2148.3333    14.3114  1513.3644     0.5620     0.1406   893.0266    24.6856    57.7355    17.3204    15.1622 11176.6924     0.5884    12.7948     1.5685     1.7227   166.7543   126.9505  2658.2717  2796.5347  4996.9961    19.1630  2452.7996  4656.1733    18.6673    21.8015    20.2344 
 2148.8333    15.0005  1508.2784     0.5204     0.1664   882.0621    23.9684    56.3939    17.7324    15.4812 11185.1406     0.6015    12.9572     1.6071     1.7913   166.7841   126.9656  2651.5945  2796.0220  4995.9961    19.1364  2452.1775  4655.0640    18.7695    21.8043    20.2869 
 2149.3333    15.7057  1509.2469     0.4232     0.2199   872.9356    22.2672    48.7727    20.5033    18.1302 11218.1875     0.6093    13.1088     1.6987     1.9517   166.7434   127.0014  2652.5715  2795.5127  4994.9985    19.1045  2451.5437  4653.9424    19.1514    21.7928    20.4721 
 2149.8333    16.5208  1513.1219     0.3834     0.2387   879.1183    21.4166    41.7371    23.9595    21.3752 11248.9922     0.6021    13.0481     1.7246     2.0173   166.6836   127.0473  2662.6692  2795.0049  4994.0029    19.1284  2450.8875  4652.7979    19.5706    21.7747    20.6727 
 2150.3333    17.1236  1515.3014     0.4395     0.1982   891.4113    22.8448    40.1003    24.9375    22.2192 11254.0508     0.5889    12.8797     1.6438     1.9249   166.3848   127.1006  2665.7637  2794.4956  4993.0059    19.0832  2450.2112  4651.6338    19.6417    21.7620    20.7019 
 2150.8333    17.1660  1514.5753     0.5147     0.1496   900.8093    23.6002    41.0311    24.3717    21.5285 11213.3135     0.5754    12.7010     1.5279     1.8008   166.1485   127.1600  2671.6267  2793.9922  4992.0146    19.3172  2449.5334  4650.4678    19.6417    21.7620    20.7019 
 2151.3333    16.6851  1515.3014     0.5612     0.1246   878.9163    23.4923    42.2025    23.6953    20.7551 11146.1270     0.5994    12.9534     1.4395     1.7240   166.2055   127.2147  2684.0046  2793.4619  4990.9966    19.2560  2448.8557  4649.3018    19.6417    21.7620    20.7019 
 2151.8333    16.3221  1516.0276     0.6089     0.1000   843.4848    22.6036    44.7429    22.3499    19.6323 11101.5996     0.6436    13.4358     1.3521     1.6453   166.6103   127.2603  2688.5645  2792.9385  4989.9854    19.2613  2448.1780  4648.1357    19.6417    21.7620    20.7019 
 2152.3333    16.3168  1516.9971     0.6618     0.0711   845.1151    22.5973    47.9443    20.8576    18.6122 11106.1182     0.6387    13.4135     1.2575     1.5581   167.2324   127.2976  2688.4016  2792.4102  4988.9692    19.8915  2447.5002  4646.9697    19.6417    21.7620    20.7019 
 2152.8333    16.6718  1511.1840     0.7021     0.0508   872.4265    22.8512    48.7764    20.5017    18.7469 11143.6816     0.6016    13.0406     1.1691     1.4915   168.0039   127.3128  2666.7407  2791.7927  4987.8638    20.6891  2446.8225  4645.8037    19.6652    21.7620    20.7136 
 2153.3333    17.0920  1504.1610     0.7267     0.0412   865.0374    23.5367    46.5394    21.4872    20.1282 11184.3652     0.6282    13.2181     1.1170     1.4510   168.5309   127.3058  2640.6824  2791.0938  4986.6772    21.0427  2446.1433  4644.6367    19.5785    21.7883    20.6834 
 2153.8333    17.2519  1496.4109     0.7500     0.0314   834.7557    24.7174    45.3785    22.0368    20.9412 11210.4336     0.6860    13.7253     1.0852     1.4125   168.6912   127.2758  2624.8848  2790.3743  4985.4697    20.9922  2445.4695  4643.4751    19.4321    21.8422    20.6372 
 2154.3333    17.1890  1493.5043     0.7825     0.0180   822.3370    24.5777    48.4244    20.6508    19.5674 11224.4277     0.7092    13.9353     1.0462     1.3589   168.0854   127.2384  2612.1814  2789.6750  4984.2822    20.2159  2444.8022  4642.3198    19.2748    21.8769    20.5759 
 2154.8333    16.8770  1488.9031     0.8083     0.0087   820.7587    23.2765    54.0889    18.4881    17.0839 11242.9668     0.7169    13.9838     1.0109     1.3163   167.0178   127.1849  2605.8296  2789.0693  4983.1890    19.5963  2444.1396  4641.1689    19.1881    21.8966    20.5424 
 2155.3333    16.6584  1491.8097     0.8065     0.0128   827.1885    22.8448    58.5998    17.0649    15.2228 11256.9062     0.7050    13.8903     0.9979     1.3193   165.8469   127.1278  2607.9468  2788.5115  4982.1436    19.5352  2443.4897  4640.0312    18.6606    21.8624    20.2615 
