~Version Information
 VERS.                  2.0:   CWLS log ASCII Standard -VERSION 2.0
 WRAP.                   NO:   One line per depth step
~Well Information Block
#MNEM.UNIT       Data Type    Information
#---------     -----------    ---------------------------
 STRT.F              1021.8333:
 STOP.F              4406.3335:
 STEP.F                 0.5000:
 NULL.               -999.2500:
 APD .                   31.0':  ABOVE PERMANENT DATUM
 UWI .           36-017-900042:  API WELLHOLE NUMBER
 BHT .                   162 F:  BOTTOMHOLE TEMPERATURE
 BLI .                   4387':  BOTTOM LOGGED INTERVAL
 BS  .                 17.500":  BIT SIZE
 CBD .                   1108':  CASING BOTTOM DRILLER
 CBL .                   1108':  CASING BOTTOM LOGGER
 COMP.    NORTHWEST GEOTHERMAL:  COMPANY NAME
 COUN.               DESCHUTES:  COUNTY
 CS  .                 20.000":  CASING DIAMETER
 DATE.             JUN-04-2008:  LOGGING DATE
 DFD .                    10.4:  DRILLING FLUID DENSITY
 DFL .                    10.4:  DRILLING FLUID LOSS
 DFPH.                     8.0:  DRILLING FLUID PH
 DFT .                    LSND:  DRILLING FLUID TYPE
 DFV .                    52.0:  DRILLING FLUID VISCOSITY
 DMF .                    K.B.:  DRILLING MEASURED
 EDF .               ---------:  ELEVATION OF DRILLING FLOOR
 EDIA.                  5.500":  EQUIP. DATA-DENSITY-DIAMETER
 EDOD.                 SDLT-DA:  EQUIP. DATA-DENSITY-MODEL NO.
 EDS1.                   10.0':  EQUIP. DATA-GAMMA-DISTANCE TO SOURCE
 EDSN.                 2694 GW:  EQUIP. DATA-DENSITY-SOURCE SERIAL NO.
 EDT .                     432:  EQUIP. DATA-GAMMA-DETECTOR MODEL NO.
 EDTR.                  1.5 CI:  EQUIP. DATA-DENSITY-STRENGTH
 EDUN.                     ONE:  EQUIP. DATA-DENSITY-RUN NO.
 EFWD.                      NO:  EQUIP. DATA-ACOUSTIC-FWDA
 EGL .                --------:  ELEVATION OF GROUND LEVEL
 EGMD.                    NGRT:  EQUIP. DATA-GAMMA-MODEL NO.
 EGRN.                     ONE:  EQUIP. DATA-GAMMA-RUN NO.
 EGSN.                   A-175:  EQUIP. DATA-GAMMA-SERIAL NO.
 EKB .                --------:  ELEVATION OF KELLY BUSHING
 ELGT.                 GAM-GAM:  EQUIP. DATA-DENSITY-LOG TYPE
 ELN1.                   4.00":  EQUIP. DATA-GAMMA-LENGTH
 EMIA.                  3.625":  EQUIP. DATA-GAMMA-DIAMETER
 ENER.                I714M741:  EQUIP. DATA-DENSITY-SERIAL NO.
 ENGI.             G. ROUSSEAU:  ENGINEER 1 NAME
 ENGT.                 NEU-NEU:  EQUIP. DATA-NEUTRON-LOG TYPE
 ENIA.                  3.625":  EQUIP. DATA-NEUTRON-DIAMETER
 ENOD.                  DSNT-X:  EQUIP. DATA-NEUTRON-MODEL NO.
 EPD .               ---------:  ELEVATATION OF PERMANENT DATUM
 EQLA.                      NO:  EQUIP. DATA-ACOUSTIC-LSA
 ESAT.                  CS-137:  EQUIP. DATA-DENSITY-SOURCE TYPE
 ESER.                      05:  EQUIP. DATA-NEUTRON-SERIAL NO.
 ESRT.                 AM241BE:  EQUIP. DATA-NEUTRON-SOURCE TYPE
 ESSN.                 DSN-307:  EQUIP. DATA-NEUTRON-SOURCE SERIAL NO.
 ESTR.                 15.0 CI:  EQUIP. DATA-NEUTRON-STRENGTH
 ETP1.                  SCINT.:  EQUIP. DATA-GAMMA-TYPE
 EURN.                     ONE:  EQUIP. DATA-NEUTRON-RUN NO.
 FL1 .             LAT: 43.333:  FIELD LOCATION LINE 1
 FL2 .          LONG: 121.1856:  FIELD LOCATION LINE 2
 FLD .    NEWBERRY KGRA (CASCADE RANGE):  FIELD NAME
 HDRT.                   OPENH:  HEADER TYPE
 LCL1.                       0:  LOGGING DATA-GAMMA-SCALE L 1
 LCL2.                     API:  LOGGING DATA-GAMMA-SCALE L 2
 LCR1.                     150:  LOGGING DATA-GAMMA-SCALE R 1
 LCR2.                     API:  LOGGING DATA-GAMMA-SCALE R 2
 LDL1.                    1.65:  LOGGING DATA-DENSITY-SCALE L 1
 LDL2.                    GMCC:  LOGGING DATA-DENSITY-SCALE L 2
 LDR1.                    2.65:  LOGGING DATA-DENSITY-SCALE R 1
 LDR2.                    GMCC:  LOGGING DATA-DENSITY-SCALE R 2
 LDX1.                    2.65:  LOGGING DATA-DENSITY-MATRIX 1
 LDX2.                    GMCC:  LOGGING DATA-DENSITY-MATRIX 2
 LFR1.                   4396':  LOGGING DATA-GENERAL-DEPTH FROM 1
 LMF .                    K.B.:  LOG MEASURED FROM
 LMX1.                    SAND:  LOGGING DATA-NEUTRON-MATRIX 1
 LRU1.                     ONE:  LOGGING DATA-GENERAL-RUN NO. 1
 LSL1.                     .60:  LOGGING DATA-NEUTRON-SCALE L 1
 LSL2.                       %:  LOGGING DATA-NEUTRON-SCALE L 2
 LSP1.                      60:  LOGGING DATA-GENERAL-SPEED 1
 LSR1.                       0:  LOGGING DATA-NEUTRON-SCALE R 1
 LSR2.                       %:  LOGGING DATA-NEUTRON-SCALE R 2
 LTO1.                   1108':  LOGGING DATA-GENERAL-DEPTH TO 1
 LUL .                    WDLD:  LOGGING UNIT LOCATION
 LUN .                   49599:  LOGGING UNIT NUMBER
 MCSS.                    MEAS:  MUD CAKE SAMPLE SOURCE
 MCST.                    40 F:  MUDCAKE SAMPLE TEMPERATURE
 MFSS.                    MEAS:  MUD FILTRATE SAMPLE SOURCE
 MFST.                    45 F:  MUD FILTRATE SAMPLE TEMPERATURE
 MRT .                   162 F:  MAXIMUM RECORDED TEMPERATURE
 MSS .                FLOWLINE:  SOURCE OF MUD SAMPLE
 MST .                    51 F:  MUD SAMPLE TEMPERATURE
 OS1 .                    NGRT:  OTHER SERVICES LINE 1
 OS2 .                    FIAC:  OTHER SERVICES LINE 2
 OS3 .                    HRTT:  OTHER SERVICES LINE 3
 OTH1.                      NA:  RES. EQUIP DATA: OTHER 1 (OH)
 PDAT.                    G.L.:  PERMANENT DATUM
 PGMV.                 XL v5.8:  PROGRAM VERSION
 PT1 .                      NA:  RES. EQUIP DATA: PAD TYPE 1 (OH)
 R1  .    ANNULAR HOLE VOLUME CALCULATED USING 13.375" CASING.:  REMARKS LINE 1
 R10 .    CREW: M. EMERSON, A, CARRASCO.                              RIG: NABORS NO. 633.:  REMARKS LINE 10
 R2  .    HRID-SDLT-DSNT-NGRT-FIAC-HRTT-RWCH RUN IN COMBINATION.:  REMARKS LINE 2
 R3  .    MAX. READ THERMOMETERS: 162F, AND 162 F.:  REMARKS LINE 3
 R4  .    MAX. READ FROM TEMP TOOL. 163.5 F @ 3981'.:  REMARKS LINE 4
 RANG.                     12E:  RANGE
 RMB .                   1.883:  RESISTIVITY OF MUD - BHT
 RMCS.                   5.720:  RESISTIVITY OF MUDCAKE SAMPLE
 RMFS.                   5.140:  RESISTIVITY OF MUD FILTRATE SAMPLE
 RMS .                   5.500:  RESISTIVITY OF MUD SAMPLE
 RRN1.                     ONE:  RES. EQUIP DATA: RUN NO 1 (OH)
 RUN .                     ONE:  RUN NUMBER 1
 SECT.                      29:  SECTION
 SON .                 5932371:  SERVICE/TICKET ORDER NUMBER
 PROV.                      OR:  STATE
 TCS .              1400 06-04:  TIME CIRCULATION STOPPED
 TDD .                   4409':  DRILLERS DEPTH
 TDL .                   4396':  LOGGERS DEPTH
 TLAB.              0050 06-05:  TIME LOGGING ON BOTTOM
 TLI .                   1108':  TOP LOGGED INTERVAL
 TN1 .           HRIT #211_132:  RES. EQUIP DATA: TOOL TYPE & NO. 1 (OH)
 TOWN.                     21S:  TOWNSHIP
 TPS1.                1.50" SO:  RES. EQUIP DATA: TOOL POS. 1 (OH)
 TITLE1.    HIGH RES. INDUCTION:  HEADER TITLE LINE 1
 TITLE2.      SPECTRAL DENSITY:  HEADER TITLE LINE 2
 TITLE3.    DUAL SPACED NEUTRON:  HEADER TITLE LINE 3
 TITLE4.               5"=100':  HEADER TITLE LINE 4
 WITN.              R. BALDWIN:  WITNESS 1 NAME
 WELL.               NWG 55-29:  WELL NAME
 XTP .                      TD:  MAX. REC TEMP. @ 1 (OPEN HOLE)
~Parameter Information Block
#MNEM.UNIT       Value        Description
#---------     -----------    ---------------------------
~Curve Information Block
#MNEM.UNIT                 API CODE     Curve Description
#---------               -----------    ---------------------------
 DEPT.F                 00 000 000 000:  
 DFL .OHMM              00 000 000 000:  DIGITALLY FOCUSED LATEROLOG            
 DLOD.LB                00 000 000 000:  CABLE HEAD TENSION                     
 DPHI.DECP              00 000 000 000:  DENSITY POROSITY                       
 DRHO.G/CC              00 000 000 000:  DENSITY CORRECTION                     
 FDSN.CPS               00 000 000 000:  DSN FAR COUNTS                         
 GR  .GAPI              00 000 000 000:  NATURAL GAMMA                          
 HDCN.MMHO              00 000 000 000:  HRI DEEP CONDUCTIVITY                  
 HDRS.OHMM              00 000 000 000:  HRI DEEP RESISTIVITY                   
 HMRS.OHMM              00 000 000 000:  HRI MEDIUM RESISTIVITY                 
 NDSN.CPS               00 000 000 000:  DSN NEAR COUNTS                        
 NPHI.DECP              00 000 000 000:  NEUTRON POROSITY                       
 NRAT.C/C               00 000 000 000:  DSN (NDSN/FDSN) RATIO                  
 PE  .                  00 000 000 000:  PHOTO-ELECTRIC FACTOR                  
 RHOB.G/CC              00 000 000 000:  BULK DENSITY                           
 SPA .MV                00 000 000 000:  ANALOG SPONTANEOUS POTENTIAL           
 TEMP.DEGF              00 000 000 000:  TEMPERATURE                            
 TENS.LBS               00 000 000 000:  CABLE TENSION                          
 AHVT_1ARM.FT3          00 000 000 000:  ANNULAR VOLUME TOTAL                   
 BHVT_1ARM.FT3          00 000 000 000:  BOREHOLE VOLUME TOTAL                  
 CALI_1ARM.IN           00 000 000 000:  CALIPER                                
 AHVT_4ARM.FT3          00 000 000 000:  ANNULAR VOLUME TOTAL                   
 BHVT_4ARM.FT3          00 000 000 000:  BOREHOLE VOLUME TOTAL                  
 C13 .IN                00 000 000 000:  FOUR ARM CALIPER ARMS 1 & 3            
 C24 .IN                00 000 000 000:  FOUR ARM CALIPER ARMS 2 & 4            
 CALA_4ARM.IN           00 000 000 000:  AVERAGE CALIPER (C1+C2)/2              
~A  DEPT        DFL        DLOD       DPHI       DRHO       FDSN       GR         HDCN       HDRS       HMRS       NDSN       NPHI       NRAT       PE         RHOB       SPA        TEMP       TENS     AHVT_1ARM  BHVT_1ARM  CALI_1ARM  AHVT_4ARM  BHVT_4ARM    C13        C24      CALA_4ARM
# ...
 1469.8333    44.1166  1530.8016     0.2418     0.1025  1526.2108    57.3565    10.5932    94.4003    76.1872 12334.4160     0.3180     8.2670     2.0962     2.2511   138.0075   118.9644  2337.2664  3471.0874  6333.5498    19.5777  3232.5706  6097.9702    16.8965    21.7573    19.3269 
 1470.3333    46.2397  1531.2854     0.2368     0.1725  1397.5597    57.7056    13.9912    71.4735    49.8629 12056.4326     0.3452     8.8325     1.9639     2.2593   138.1950   118.9722  2333.5203  3470.5520  6332.5269    18.7508  3232.0527  6096.9644    17.1176    21.7502    19.4339 
 1470.8333    46.1192  1527.6527     0.2484     0.2218  1270.0065    57.4644    18.5278    53.9729    35.9046 11766.8682     0.3781     9.4889     1.8953     2.2402   138.1488   118.9868  2329.7744  3470.0913  6331.5781    18.5089  3231.5217  6095.9453    17.3712    21.7262    19.5487 
 1471.3333    43.2541  1525.7157     0.2990     0.2192  1161.0371    56.3726    24.0525    41.5758    27.8027 11545.1016     0.4141    10.1722     1.8604     2.1567   137.8527   118.9915  2321.3054  3469.6465  6330.6455    18.4637  3230.9773  6094.9131    17.4825    21.6947    19.5886 
 1471.8333    40.4474  1525.4733     0.3632     0.1859  1111.0435    54.0748    28.9090    34.5913    23.3944 11487.0986     0.4349    10.5561     1.8017     2.0508   137.4778   119.0069  2317.8853  3469.2046  6329.7158    18.4717  3230.4309  6093.8789    17.4825    21.6947    19.5886 
 1472.3333    39.7916  1524.9885     0.3759     0.1540  1146.1663    55.4332    28.7333    34.8029    23.5071 11674.0430     0.4274    10.4082     1.7998     2.0297   136.8747   119.0130  2311.6965  3468.7588  6328.7822    18.5381  3229.8845  6092.8447    17.4825    21.6947    19.5886 
 1472.8333    41.7880  1518.4503     0.3143     0.1246  1261.5963    58.7149    20.9152    47.8120    32.2640 12057.6611     0.3978     9.8197     1.9209     2.1315   136.6873   119.0229  2306.4849  3468.3096  6327.8452    18.5036  3229.3381  6091.8105    17.4825    21.6947    19.5886 
 1473.3333    45.8462  1515.5438     0.2381     0.0842  1465.7795    59.5273     9.5824   104.3581    74.1777 12466.0537     0.3476     8.8034     2.1035     2.2571   136.7796   119.0267  2310.3936  3467.8643  6326.9121    18.7508  3228.7917  6090.7764    17.4825    21.6947    19.5886 
 1473.8333    49.9971  1517.9656     0.1936     0.0537  1673.5323    59.5591     5.4412   183.7827   169.4775 12727.3916     0.2991     7.8153     2.2447     2.3305   137.0024   119.0335  2313.9766  3467.3694  6325.9292    19.2480  3228.2454  6089.7422    17.4825    21.6947    19.5886 
 1474.3333    51.8799  1522.0830     0.1932     0.0454  1713.4751    60.1684     6.0419   165.5105   173.0124 12755.6514     0.2894     7.6175     2.2233     2.3312   137.2767   119.0419  2316.7454  3466.8464  6324.9185    19.2720  3227.6990  6088.7080    17.4825    21.6947    19.5886 
 1474.8333    51.5502  1523.5363     0.2118     0.0615  1588.9052    63.3105     6.7331   148.5198   193.0807 12597.7178     0.3139     8.1315     2.1111     2.3005   137.5484   119.0534  2320.4912  3466.3186  6323.9028    19.2826  3227.1526  6087.6738    17.4825    21.6947    19.5886 
 1475.3333    51.2064  1524.5048     0.2258     0.0963  1471.1931    64.5800     9.9658   100.3435    98.0753 12384.2100     0.3357     8.5988     1.9341     2.2775   137.6598   119.0610  2319.0254  3465.8071  6322.9038    18.7083  3226.6062  6086.6396    17.4825    21.6947    19.5886 
 1475.8333    51.5540  1521.3558     0.2168     0.1396  1401.4160    66.3319    11.9889    83.4103    63.1201 12175.0078     0.3485     8.8756     1.8333     2.2923   137.6326   119.0656  2316.9082  3465.3540  6321.9629    18.2829  3226.0598  6085.6055    17.4825    21.6947    19.5886 
 1476.3333    52.5294  1518.4503     0.2154     0.1627  1314.5942    65.8939    13.7662    72.6417    46.8235 11984.5137     0.3707     9.3236     1.7926     2.2946   137.6353   119.0748  2314.9536  3464.9316  6321.0532    18.2483  3225.5134  6084.5713    17.4825    21.6947    19.5886 
 1476.8333    53.1718  1516.9971     0.2404     0.1660  1236.1504    66.2177    15.5119    64.4665    39.1281 11830.8174     0.3933     9.7686     1.8077     2.2533   137.6000   119.0794  2309.5791  3464.5120  6320.1455    18.2271  3224.9670  6083.5371    17.4825    21.6947    19.5886 
 1477.3333    53.0905  1514.0905     0.2720     0.1670  1190.3793    64.7641    17.0214    58.7496    36.3549 11729.5586     0.4083    10.0534     1.8150     2.2012   137.4588   119.0863  2308.2764  3464.0945  6319.2397    18.2084  3224.4207  6082.5029    17.4825    21.6947    19.5886 
 1477.8333    53.1235  1515.3014     0.2787     0.1714  1181.4130    62.9741    17.9486    55.7147    36.8698 11745.1904     0.4136    10.1441     1.7993     2.1902   137.4316   119.0924  2308.1133  3463.6804  6318.3379    18.1606  3223.8743  6081.4688    17.4825    21.6947    19.5886 
 1478.3333    53.3911  1518.2080     0.2540     0.1619  1233.0709    59.7495    17.3911    57.5008    42.0702 11882.3203     0.3983     9.8465     1.8028     2.2309   137.2414   119.0963  2308.6021  3463.2678  6317.4375    18.1579  3223.3279  6080.4346    17.4825    21.6947    19.5886 
 1478.8333    53.1497  1522.0830     0.2241     0.1287  1318.2480    58.2959    14.4422    69.2415    58.0474 12055.5420     0.3728     9.3458     1.8112     2.2803   137.1790   119.1100  2316.4194  3462.8577  6316.5391    18.1260  3222.7815  6079.4004    17.4825    21.6947    19.5886 
 1479.3333    52.6940  1525.2310     0.2131     0.1043  1402.5923    59.4829    10.9231    91.5490    94.5722 12183.8115     0.3496     8.8750     1.8465     2.2984   137.0268   119.1170  2317.5596  3462.4473  6315.6411    18.5488  3222.2351  6078.3662    17.4825    21.6947    19.5886 
 1479.8333    52.0448  1525.7157     0.2164     0.1131  1463.0741    62.2377    11.1050    90.0498   101.0795 12217.1289     0.3320     8.5217     1.8382     2.2929   137.1002   119.1239  2321.6311  3461.9690  6314.6748    19.3624  3221.6887  6077.3320    17.4825    21.6947    19.5886 
 1480.3333    51.8503  1528.1375     0.2130     0.1306  1467.7587    61.7299    13.1342    76.1373    76.1947 12179.1338     0.3285     8.4631     1.8156     2.2985   137.4397   119.1278  2327.8198  3461.4255  6313.6436    19.6017  3221.1423  6076.2979    17.4825    21.6947    19.5886 
 1480.8333    51.5347  1530.8016     0.1969     0.1251  1436.8201    58.7276    12.6489    79.0583    72.4530 12117.5391     0.3343     8.6013     1.7766     2.3251   137.8662   119.1347  2328.4714  3460.8628  6312.5933    19.4501  3220.5959  6075.2637    17.4825    21.6947    19.5886 
 1481.3333    51.2438  1529.8331     0.1799     0.1170  1425.7330    55.8775    11.3258    88.2942    74.1121 12036.9287     0.3338     8.6117     1.7754     2.3532   138.0564   119.1401  2328.1458  3460.3389  6311.5815    18.5461  3220.0496  6074.2295    17.4825    21.6947    19.5886 
 1481.8333    50.8160  1525.9581     0.1786     0.1315  1401.7413    55.6172    12.2648    81.5342    60.1048 11939.6416     0.3382     8.7113     1.7994     2.3553   138.0754   119.1517  2320.6541  3459.9041  6310.6587    18.1712  3219.5032  6073.1953    17.4825    21.6947    19.5886 
 1482.3333    50.9328  1524.0200     0.2057     0.1562  1307.0160    57.0137    14.8228    67.4636    45.6146 11829.7158     0.3674     9.2820     1.8177     2.3106   138.0048   119.1509  2309.2534  3459.4924  6309.7593    18.1393  3218.9568  6072.1611    17.4825    21.6947    19.5886 
 1482.8333    51.7561  1520.6298     0.2467     0.1774  1213.2064    58.6323    17.3703    57.5695    37.7409 11711.3760     0.3976     9.8606     1.8187     2.2429   137.7766   119.1632  2305.1819  3459.0833  6308.8623    18.1287  3218.4104  6071.1270    17.4825    21.6947    19.5886 
 1483.3333    53.6161  1520.3873     0.2823     0.1841  1185.1720    58.9370    19.0220    52.5706    34.8945 11650.4082     0.4068    10.0263     1.8056     2.1842   137.5729   119.1793  2307.9504  3458.6753  6307.9663    18.1074  3217.8599  6070.0884    17.7668    21.6959    19.7313 
