~Version Information
 VERS.                  2.0:   CWLS log ASCII Standard -VERSION 2.0
 WRAP.                   NO:   One line per depth step
~Well Information Block
#MNEM.UNIT       Data Type    Information
#---------     -----------    ---------------------------
 STRT.F              1021.8333:
 STOP.F              4406.3335:
 STEP.F                 0.5000:
 NULL.               -999.2500:
 APD .                   31.0':  ABOVE PERMANENT DATUM
 UWI .           36-017-900042:  API WELLHOLE NUMBER
 BHT .                   162 F:  BOTTOMHOLE TEMPERATURE
 BLI .                   4387':  BOTTOM LOGGED INTERVAL
 BS  .                 17.500":  BIT SIZE
 CBD .                   1108':  CASING BOTTOM DRILLER
 CBL .                   1108':  CASING BOTTOM LOGGER
 COMP.    NORTHWEST GEOTHERMAL:  COMPANY NAME
 COUN.               DESCHUTES:  COUNTY
 CS  .                 20.000":  CASING DIAMETER
 DATE.             JUN-04-2008:  LOGGING DATE
 DFD .                    10.4:  DRILLING FLUID DENSITY
 DFL .                    10.4:  DRILLING FLUID LOSS
 DFPH.                     8.0:  DRILLING FLUID PH
 DFT .                    LSND:  DRILLING FLUID TYPE
 DFV .                    52.0:  DRILLING FLUID VISCOSITY
 DMF .                    K.B.:  DRILLING MEASURED
 EDF .               ---------:  ELEVATION OF DRILLING FLOOR
 EDIA.                  5.500":  EQUIP. DATA-DENSITY-DIAMETER
 EDOD.                 SDLT-DA:  EQUIP. DATA-DENSITY-MODEL NO.
 EDS1.                   10.0':  EQUIP. DATA-GAMMA-DISTANCE TO SOURCE
 EDSN.                 2694 GW:  EQUIP. DATA-DENSITY-SOURCE SERIAL NO.
 EDT .                     432:  EQUIP. DATA-GAMMA-DETECTOR MODEL NO.
 EDTR.                  1.5 CI:  EQUIP. DATA-DENSITY-STRENGTH
 EDUN.                     ONE:  EQUIP. DATA-DENSITY-RUN NO.
 EFWD.                      NO:  EQUIP. DATA-ACOUSTIC-FWDA
 EGL .                --------:  ELEVATION OF GROUND LEVEL
 EGMD.                    NGRT:  EQUIP. DATA-GAMMA-MODEL NO.
 EGRN.                     ONE:  EQUIP. DATA-GAMMA-RUN NO.
 EGSN.                   A-175:  EQUIP. DATA-GAMMA-SERIAL NO.
 EKB .                --------:  ELEVATION OF KELLY BUSHING
 ELGT.                 GAM-GAM:  EQUIP. DATA-DENSITY-LOG TYPE
 ELN1.                   4.00":  EQUIP. DATA-GAMMA-LENGTH
 EMIA.                  3.625":  EQUIP. DATA-GAMMA-DIAMETER
 ENER.                I714M741:  EQUIP. DATA-DENSITY-SERIAL NO.
 ENGI.             G. ROUSSEAU:  ENGINEER 1 NAME
 ENGT.                 NEU-NEU:  EQUIP. DATA-NEUTRON-LOG TYPE
 ENIA.                  3.625":  EQUIP. DATA-NEUTRON-DIAMETER
 ENOD.                  DSNT-X:  EQUIP. DATA-NEUTRON-MODEL NO.
 EPD .               ---------:  ELEVATATION OF PERMANENT DATUM
 EQLA.                      NO:  EQUIP. DATA-ACOUSTIC-LSA
 ESAT.                  CS-137:  EQUIP. DATA-DENSITY-SOURCE TYPE
 ESER.                      05:  EQUIP. DATA-NEUTRON-SERIAL NO.
 ESRT.                 AM241BE:  EQUIP. DATA-NEUTRON-SOURCE TYPE
 ESSN.                 DSN-307:  EQUIP. DATA-NEUTRON-SOURCE SERIAL NO.
 ESTR.                 15.0 CI:  EQUIP. DATA-NEUTRON-STRENGTH
 ETP1.                  SCINT.:  EQUIP. DATA-GAMMA-TYPE
 EURN.                     ONE:  EQUIP. DATA-NEUTRON-RUN NO.
 FL1 .             LAT: 43.333:  FIELD LOCATION LINE 1
 FL2 .          LONG: 121.1856:  FIELD LOCATION LINE 2
 FLD .    NEWBERRY KGRA (CASCADE RANGE):  FIELD NAME
 HDRT.                   OPENH:  HEADER TYPE
 LCL1.                       0:  LOGGING DATA-GAMMA-SCALE L 1
 LCL2.                     API:  LOGGING DATA-GAMMA-SCALE L 2
 LCR1.                     150:  LOGGING DATA-GAMMA-SCALE R 1
 LCR2.                     API:  LOGGING DATA-GAMMA-SCALE R 2
 LDL1.                    1.65:  LOGGING DATA-DENSITY-SCALE L 1
 LDL2.                    GMCC:  LOGGING DATA-DENSITY-SCALE L 2
 LDR1.                    2.65:  LOGGING DATA-DENSITY-SCALE R 1
 LDR2.                    GMCC:  LOGGING DATA-DENSITY-SCALE R 2
 LDX1.                    2.65:  LOGGING DATA-DENSITY-MATRIX 1
 LDX2.                    GMCC:  LOGGING DATA-DENSITY-MATRIX 2
 LFR1.                   4396':  LOGGING DATA-GENERAL-DEPTH FROM 1
 LMF .                    K.B.:  LOG MEASURED FROM
 LMX1.                    SAND:  LOGGING DATA-NEUTRON-MATRIX 1
 LRU1.                     ONE:  LOGGING DATA-GENERAL-RUN NO. 1
 LSL1.                     .60:  LOGGING DATA-NEUTRON-SCALE L 1
 LSL2.                       %:  LOGGING DATA-NEUTRON-SCALE L 2
 LSP1.                      60:  LOGGING DATA-GENERAL-SPEED 1
 LSR1.                       0:  LOGGING DATA-NEUTRON-SCALE R 1
 LSR2.                       %:  LOGGING DATA-NEUTRON-SCALE R 2
 LTO1.                   1108':  LOGGING DATA-GENERAL-DEPTH TO 1
 LUL .                    WDLD:  LOGGING UNIT LOCATION
 LUN .                   49599:  LOGGING UNIT NUMBER
 MCSS.                    MEAS:  MUD CAKE SAMPLE SOURCE
 MCST.                    40 F:  MUDCAKE SAMPLE TEMPERATURE
 MFSS.                    MEAS:  MUD FILTRATE SAMPLE SOURCE
 MFST.                    45 F:  MUD FILTRATE SAMPLE TEMPERATURE
 MRT .                   162 F:  MAXIMUM RECORDED TEMPERATURE
 MSS .                FLOWLINE:  SOURCE OF MUD SAMPLE
 MST .                    51 F:  MUD SAMPLE TEMPERATURE
 OS1 .                    NGRT:  OTHER SERVICES LINE 1
 OS2 .                    FIAC:  OTHER SERVICES LINE 2
 OS3 .                    HRTT:  OTHER SERVICES LINE 3
 OTH1.                      NA:  RES. EQUIP DATA: OTHER 1 (OH)
 PDAT.                    G.L.:  PERMANENT DATUM
 PGMV.                 XL v5.8:  PROGRAM VERSION
 PT1 .                      NA:  RES. EQUIP DATA: PAD TYPE 1 (OH)
 R1  .    ANNULAR HOLE VOLUME CALCULATED USING 13.375" CASING.:  REMARKS LINE 1
 R10 .    CREW: M. EMERSON, A, CARRASCO.                              RIG: NABORS NO. 633.:  REMARKS LINE 10
 R2  .    HRID-SDLT-DSNT-NGRT-FIAC-HRTT-RWCH RUN IN COMBINATION.:  REMARKS LINE 2
 R3  .    MAX. READ THERMOMETERS: 162F, AND 162 F.:  REMARKS LINE 3
 R4  .    MAX. READ FROM TEMP TOOL. 163.5 F @ 3981'.:  REMARKS LINE 4
 RANG.                     12E:  RANGE
 RMB .                   1.883:  RESISTIVITY OF MUD - BHT
 RMCS.                   5.720:  RESISTIVITY OF MUDCAKE SAMPLE
 RMFS.                   5.140:  RESISTIVITY OF MUD FILTRATE SAMPLE
 RMS .                   5.500:  RESISTIVITY OF MUD SAMPLE
 RRN1.                     ONE:  RES. EQUIP DATA: RUN NO 1 (OH)
 RUN .                     ONE:  RUN NUMBER 1
 SECT.                      29:  SECTION
 SON .                 5932371:  SERVICE/TICKET ORDER NUMBER
 PROV.                      OR:  STATE
 TCS .              1400 06-04:  TIME CIRCULATION STOPPED
 TDD .                   4409':  DRILLERS DEPTH
 TDL .                   4396':  LOGGERS DEPTH
 TLAB.              0050 06-05:  TIME LOGGING ON BOTTOM
 TLI .                   1108':  TOP LOGGED INTERVAL
 TN1 .           HRIT #211_132:  RES. EQUIP DATA: TOOL TYPE & NO. 1 (OH)
 TOWN.                     21S:  TOWNSHIP
 TPS1.                1.50" SO:  RES. EQUIP DATA: TOOL POS. 1 (OH)
 TITLE1.    HIGH RES. INDUCTION:  HEADER TITLE LINE 1
 TITLE2.      SPECTRAL DENSITY:  HEADER TITLE LINE 2
 TITLE3.    DUAL SPACED NEUTRON:  HEADER TITLE LINE 3
 TITLE4.               5"=100':  HEADER TITLE LINE 4
 WITN.              R. BALDWIN:  WITNESS 1 NAME
 WELL.               NWG 55-29:  WELL NAME
 XTP .                      TD:  MAX. REC TEMP. @ 1 (OPEN HOLE)
~Parameter Information Block
#MNEM.UNIT       Value        Description
#---------     -----------    ---------------------------
~Curve Information Block
#MNEM.UNIT                 API CODE     Curve Description
#---------               -----------    ---------------------------
 DEPT.F                 00 000 000 000:  
 DFL .OHMM              00 000 000 000:  DIGITALLY FOCUSED LATEROLOG            
 DLOD.LB                00 000 000 000:  CABLE HEAD TENSION                     
 DPHI.DECP              00 000 000 000:  DENSITY POROSITY                       
 DRHO.G/CC              00 000 000 000:  DENSITY CORRECTION                     
 FDSN.CPS               00 000 000 000:  DSN FAR COUNTS                         
 GR  .GAPI              00 000 000 000:  NATURAL GAMMA                          
 HDCN.MMHO              00 000 000 000:  HRI DEEP CONDUCTIVITY                  
 HDRS.OHMM              00 000 000 000:  HRI DEEP RESISTIVITY                   
 HMRS.OHMM              00 000 000 000:  HRI MEDIUM RESISTIVITY                 
 NDSN.CPS               00 000 000 000:  DSN NEAR COUNTS                        
 NPHI.DECP              00 000 000 000:  NEUTRON POROSITY                       
 NRAT.C/C               00 000 000 000:  DSN (NDSN/FDSN) RATIO                  
 PE  .                  00 000 000 000:  PHOTO-ELECTRIC FACTOR                  
 RHOB.G/CC              00 000 000 000:  BULK DENSITY                           
 SPA .MV                00 000 000 000:  ANALOG SPONTANEOUS POTENTIAL           
 TEMP.DEGF              00 000 000 000:  TEMPERATURE                            
 TENS.LBS               00 000 000 000:  CABLE TENSION                          
 AHVT_1ARM.FT3          00 000 000 000:  ANNULAR VOLUME TOTAL                   
 BHVT_1ARM.FT3          00 000 000 000:  BOREHOLE VOLUME TOTAL                  
 CALI_1ARM.IN           00 000 000 000:  CALIPER                                
 AHVT_4ARM.FT3          00 000 000 000:  ANNULAR VOLUME TOTAL                   
 BHVT_4ARM.FT3          00 000 000 000:  BOREHOLE VOLUME TOTAL                  
 C13 .IN                00 000 000 000:  FOUR ARM CALIPER ARMS 1 & 3            
 C24 .IN                00 000 000 000:  FOUR ARM CALIPER ARMS 2 & 4            
 CALA_4ARM.IN           00 000 000 000:  AVERAGE CALIPER (C1+C2)/2              
~A  DEPT        DFL        DLOD       DPHI       DRHO       FDSN       GR         HDCN       HDRS       HMRS       NDSN       NPHI       NRAT       PE         RHOB       SPA        TEMP       TENS     AHVT_1ARM  BHVT_1ARM  CALI_1ARM  AHVT_4ARM  BHVT_4ARM    C13        C24      CALA_4ARM
# ...
 1245.8333    42.4255  1533.9496     0.3617     0.0677   901.0713    17.3859    25.3139    39.5040    34.8470 11263.4668     0.5842    12.7511     2.5944     2.0532   144.9945   116.3141  2234.4988  3680.8225  6761.8447    18.4318  3494.2881  6578.2402    17.9268    21.8091    19.8680 
 1246.3333    48.4303  1531.0441     0.2967     0.0959   883.6075    16.9734    19.7920    50.5255    40.6384 11274.1123     0.6045    13.0167     2.4821     2.1604   145.7850   116.3196  2229.1243  3680.3884  6760.9224    18.3068  3493.7163  6577.1802    17.5821    21.8113    19.6967 
 1246.8333    58.7853  1528.8636     0.2000     0.1323   897.0299    18.0334    10.7254    93.2364    61.6601 11314.0693     0.5954    12.8948     2.5458     2.3200   147.1542   116.3166  2230.5901  3679.9631  6760.0093    18.2776  3493.1602  6576.1362    17.5202    21.8030    19.6616 
 1247.3333    71.8980  1530.5593     0.1230     0.1541   957.0380    19.7472     8.1762   122.3056    73.4005 11350.9287     0.5400    12.1472     2.6745     2.4471   148.6728   116.3167  2233.1958  3679.5425  6759.1011    18.2005  3492.6035  6575.0913    17.7583    21.8101    19.7842 
 1247.8333    81.3202  1533.2235     0.0824     0.1431  1011.0707    21.2706     6.3641   157.1311    85.8978 11397.1133     0.4950    11.5165     2.9140     2.5141   150.3217   116.3168  2236.1274  3679.1265  6758.1973    18.2350  3492.0303  6574.0303    18.0977    21.8031    19.9504 
 1248.3333    83.5606  1535.1605     0.0523     0.1056  1055.3997    22.6100     7.0052   142.7504    90.1761 11496.3760     0.4713    11.1360     3.2978     2.5637   150.6531   116.3199  2247.6907  3678.7070  6757.2896    18.2696  3491.4377  6572.9497    18.3538    21.7900    20.0719 
 1248.8333    83.4805  1535.8876     0.0229     0.0611  1116.4902    22.8766     5.7637   173.4986   144.2633 11654.4580     0.4442    10.6704     3.7579     2.6122   150.8270   116.3199  2253.2280  3678.2820  6756.3765    18.4663  3490.8320  6571.8564    18.5631    21.7854    20.1743 
 1249.3333    86.5766  1539.5203    -0.0115     0.0426  1188.7747    23.2130     4.0228   248.5822   285.2473 11838.8145     0.4171    10.1788     4.0759     2.6689   151.2644   116.3267  2253.2280  3677.8276  6755.4341    18.9130  3490.2141  6570.7510    18.7202    21.7972    20.2587 
 1249.8333    92.2150  1539.5203    -0.0383     0.0462  1270.0438    23.4732     2.7485   363.8325   699.7477 12008.3496     0.3900     9.6650     4.1702     2.7131   151.5550   116.3344  2249.3193  3677.3333  6754.4517    19.0779  3489.5867  6569.6357    18.8377    21.8015    20.3196 
 1250.3333    98.2641  1538.7942    -0.0627     0.0731  1336.4076    22.9972     1.9631   509.3953  1242.5955 12097.8467     0.3678     9.2391     3.9824     2.7535   150.7998   116.3367  2243.4563  3676.8276  6753.4585    19.1390  3488.9558  6568.5171    18.6506    21.8069    20.2287 
 1250.8333   101.4139  1541.9421    -0.0784     0.1295  1346.2924    22.4640     2.2954   435.6589   546.5173 12072.9717     0.3633     9.1523     3.6392     2.7793   149.6670   116.3421  2245.8994  3676.3157  6752.4590    19.1045  3488.3413  6567.4146    18.0842    21.8011    19.9426 
 1251.3333   102.3625  1541.4574    -0.0779     0.2095  1291.7781    21.5880     4.2606   234.7097   201.5539 11954.1348     0.3788     9.4549     3.1951     2.7785   148.5723   116.3513  2245.5735  3675.8218  6751.4771    18.5435  3487.7637  6566.3491    17.4403    21.8051    19.6227 
 1251.8333   100.8707  1540.7312    -0.0553     0.2734  1199.1855    21.9498     7.3647   135.7832   108.1474 11770.0244     0.4102    10.0487     2.8559     2.7412   147.5617   116.3566  2244.4333  3675.3782  6750.5459    18.3972  3487.2217  6565.3193    17.0410    21.7937    19.4174 
 1252.3333    98.5575  1539.2780     0.0123     0.2749  1108.1591    23.0543    12.4943    80.0364    55.9742 11574.3604     0.4447    10.6843     2.6438     2.6297   147.6133   116.3620  2243.4563  3674.9441  6749.6240    18.3573  3486.6990  6564.3086    16.9262    21.7898    19.3580 
 1252.8333    95.4250  1540.7312     0.0792     0.2465  1044.4210    24.5206    15.8322    63.1623    42.1322 11454.9561     0.4745    11.2037     2.5840     2.5193   148.8683   116.3642  2239.8733  3674.5127  6748.7046    18.3387  3486.1807  6563.3027    17.0473    21.7921    19.4197 
 1253.3333    95.4046  1544.6063     0.0994     0.2094  1010.4744    24.1143    15.8674    63.0223    41.5277 11459.0479     0.4979    11.5813     2.6621     2.4860   150.3190   116.3595  2242.1533  3674.0845  6747.7886    18.3228  3485.6497  6562.2842    17.5227    21.8059    19.6643 
 1253.8333   100.2846  1545.8171     0.0541     0.1647  1030.1344    20.3820    12.0437    83.0308    57.7261 11576.5586     0.4921    11.4823     2.9214     2.5607   151.7534   116.3656  2247.5281  3673.6562  6746.8726    18.3361  3485.0864  6561.2329    18.1603    21.8132    19.9868 
 1254.3333   110.4932  1547.9966    -0.0052     0.1137  1097.9792    17.9191     6.3599   157.2356   158.7814 11778.1162     0.4611    10.9644     3.3275     2.6586   152.7693   116.3655  2257.4626  3673.2271  6745.9556    18.3494  3484.4839  6560.1426    18.8009    21.8219    20.3114 
 1254.8333   122.4916  1549.2075    -0.0399     0.0829  1195.3406    16.9924     4.8985   204.1429   244.9454 11976.9863     0.4224    10.2696     3.6693     2.7158   153.5436   116.3693  2268.0488  3672.7927  6745.0337    18.6923  3483.8469  6559.0176    19.1686    21.8284    20.4985 
 1255.3333   126.3423  1547.7552    -0.0526     0.0833  1294.0181    18.8078     3.6018   277.6406   671.1369 12092.3047     0.3850     9.5683     3.7799     2.7368   153.9837   116.3755  2270.3289  3672.3076  6744.0605    19.5352  3483.1926  6557.8760    19.1560    21.8172    20.4866 
 1255.8333   118.0465  1551.8716    -0.0410     0.1026  1311.9822    20.5216     3.9912   250.5496   834.2189 12108.2061     0.3779     9.4281     3.5811     2.7177   154.3368   116.3862  2270.1660  3671.7429  6743.0078    19.8543  3482.5439  6556.7397    18.8954    21.8030    20.3492 
 1256.3333   104.5004  1553.0825    -0.0105     0.1368  1259.7142    22.0070     5.7089   175.1656   344.4095 12022.8389     0.3953     9.7524     3.2269     2.6673   154.3042   116.3900  2269.8403  3671.1519  6741.9287    19.9553  3481.9180  6555.6260    18.2513    21.7864    20.0189 
 1256.8333    95.9597  1554.2935     0.0022     0.1913  1212.4314    21.3468     8.2179   121.6860   184.2940 11873.7510     0.4077     9.9963     2.8786     2.6464   153.2610   116.3999  2269.6772  3670.5640  6740.8530    19.4847  3481.3325  6554.5532    17.5037    21.7885    19.6461 
 1257.3333    94.6976  1549.2075     0.0101     0.2391  1178.6240    19.9377    10.8641    92.0466    84.3539 11708.1826     0.4140    10.1334     2.6785     2.6334   152.1554   116.4130  2261.3713  3670.0332  6739.8345    18.9157  3480.7903  6553.5229    16.9918    21.7722    19.3820 
 1257.8333    99.8120  1543.3954     0.0538     0.2511  1133.5223    18.3381    12.6120    79.2896    58.4125 11542.8691     0.4284    10.4026     2.5823     2.5612   151.0932   116.4207  2257.7883  3669.5491  6738.8628    18.6099  3480.2722  6552.5171    16.8937    21.7530    19.3233 
 1258.3333   103.1834  1541.2159     0.1216     0.2428  1062.0724    19.1442    16.5800    60.3137    41.6968 11415.8604     0.4642    11.0105     2.5339     2.4494   150.7129   116.4208  2253.7168  3669.1064  6737.9321    18.2457  3479.7529  6551.5103    17.2214    21.7029    19.4621 
 1258.8333   101.2015  1541.6997     0.1464     0.2371  1012.6980    19.9313    24.1462    41.4144    29.8563 11370.5859     0.4923    11.4812     2.5040     2.4085   151.1014   116.4199  2255.0195  3668.6880  6737.0254    18.1579  3479.2168  6550.4858    17.6050    21.6960    19.6505 
 1259.3333    92.0983  1545.8171     0.1181     0.2042  1038.2556    20.5407    35.9344    27.8285    22.0678 11397.8906     0.4757    11.2221     2.6286     2.4551   151.8865   116.4199  2261.2085  3668.2778  6736.1270    18.1393  3478.6555  6549.4365    17.9955    21.6789    19.8372 
