~Version Information
 VERS.                  2.0:   CWLS log ASCII Standard -VERSION 2.0
 WRAP.                   NO:   One line per depth step
~Well Information Block
#MNEM.UNIT       Data Type    Information
#---------     -----------    ---------------------------
 STRT.F              1021.8333:
 STOP.F              4406.3335:
 STEP.F                 0.5000:
 NULL.               -999.2500:
 APD .                   31.0':  ABOVE PERMANENT DATUM
 UWI .           36-017-900042:  API WELLHOLE NUMBER
 BHT .                   162 F:  BOTTOMHOLE TEMPERATURE
 BLI .                   4387':  BOTTOM LOGGED INTERVAL
 BS  .                 17.500":  BIT SIZE
 CBD .                   1108':  CASING BOTTOM DRILLER
 CBL .                   1108':  CASING BOTTOM LOGGER
 COMP.    NORTHWEST GEOTHERMAL:  COMPANY NAME
 COUN.               DESCHUTES:  COUNTY
 CS  .                 20.000":  CASING DIAMETER
 DATE.             JUN-04-2008:  LOGGING DATE
 DFD .                    10.4:  DRILLING FLUID DENSITY
 DFL .                    10.4:  DRILLING FLUID LOSS
 DFPH.                     8.0:  DRILLING FLUID PH
 DFT .                    LSND:  DRILLING FLUID TYPE
 DFV .                    52.0:  DRILLING FLUID VISCOSITY
 DMF .                    K.B.:  DRILLING MEASURED
 EDF .               ---------:  ELEVATION OF DRILLING FLOOR
 EDIA.                  5.500":  EQUIP. DATA-DENSITY-DIAMETER
 EDOD.                 SDLT-DA:  EQUIP. DATA-DENSITY-MODEL NO.
 EDS1.                   10.0':  EQUIP. DATA-GAMMA-DISTANCE TO SOURCE
 EDSN.                 2694 GW:  EQUIP. DATA-DENSITY-SOURCE SERIAL NO.
 EDT .                     432:  EQUIP. DATA-GAMMA-DETECTOR MODEL NO.
 EDTR.                  1.5 CI:  EQUIP. DATA-DENSITY-STRENGTH
 EDUN.                     ONE:  EQUIP. DATA-DENSITY-RUN NO.
 EFWD.                      NO:  EQUIP. DATA-ACOUSTIC-FWDA
 EGL .                --------:  ELEVATION OF GROUND LEVEL
 EGMD.                    NGRT:  EQUIP. DATA-GAMMA-MODEL NO.
 EGRN.                     ONE:  EQUIP. DATA-GAMMA-RUN NO.
 EGSN.                   A-175:  EQUIP. DATA-GAMMA-SERIAL NO.
 EKB .                --------:  ELEVATION OF KELLY BUSHING
 ELGT.                 GAM-GAM:  EQUIP. DATA-DENSITY-LOG TYPE
 ELN1.                   4.00":  EQUIP. DATA-GAMMA-LENGTH
 EMIA.                  3.625":  EQUIP. DATA-GAMMA-DIAMETER
 ENER.                I714M741:  EQUIP. DATA-DENSITY-SERIAL NO.
 ENGI.             G. ROUSSEAU:  ENGINEER 1 NAME
 ENGT.                 NEU-NEU:  EQUIP. DATA-NEUTRON-LOG TYPE
 ENIA.                  3.625":  EQUIP. DATA-NEUTRON-DIAMETER
 ENOD.                  DSNT-X:  EQUIP. DATA-NEUTRON-MODEL NO.
 EPD .               ---------:  ELEVATATION OF PERMANENT DATUM
 EQLA.                      NO:  EQUIP. DATA-ACOUSTIC-LSA
 ESAT.                  CS-137:  EQUIP. DATA-DENSITY-SOURCE TYPE
 ESER.                      05:  EQUIP. DATA-NEUTRON-SERIAL NO.
 ESRT.                 AM241BE:  EQUIP. DATA-NEUTRON-SOURCE TYPE
 ESSN.                 DSN-307:  EQUIP. DATA-NEUTRON-SOURCE SERIAL NO.
 ESTR.                 15.0 CI:  EQUIP. DATA-NEUTRON-STRENGTH
 ETP1.                  SCINT.:  EQUIP. DATA-GAMMA-TYPE
 EURN.                     ONE:  EQUIP. DATA-NEUTRON-RUN NO.
 FL1 .             LAT: 43.333:  FIELD LOCATION LINE 1
 FL2 .          LONG: 121.1856:  FIELD LOCATION LINE 2
 FLD .    NEWBERRY KGRA (CASCADE RANGE):  FIELD NAME
 HDRT.                   OPENH:  HEADER TYPE
 LCL1.                       0:  LOGGING DATA-GAMMA-SCALE L 1
 LCL2.                     API:  LOGGING DATA-GAMMA-SCALE L 2
 LCR1.                     150:  LOGGING DATA-GAMMA-SCALE R 1
 LCR2.                     API:  LOGGING DATA-GAMMA-SCALE R 2
 LDL1.                    1.65:  LOGGING DATA-DENSITY-SCALE L 1
 LDL2.                    GMCC:  LOGGING DATA-DENSITY-SCALE L 2
 LDR1.                    2.65:  LOGGING DATA-DENSITY-SCALE R 1
 LDR2.                    GMCC:  LOGGING DATA-DENSITY-SCALE R 2
 LDX1.                    2.65:  LOGGING DATA-DENSITY-MATRIX 1
 LDX2.                    GMCC:  LOGGING DATA-DENSITY-MATRIX 2
 LFR1.                   4396':  LOGGING DATA-GENERAL-DEPTH FROM 1
 LMF .                    K.B.:  LOG MEASURED FROM
 LMX1.                    SAND:  LOGGING DATA-NEUTRON-MATRIX 1
 LRU1.                     ONE:  LOGGING DATA-GENERAL-RUN NO. 1
 LSL1.                     .60:  LOGGING DATA-NEUTRON-SCALE L 1
 LSL2.                       %:  LOGGING DATA-NEUTRON-SCALE L 2
 LSP1.                      60:  LOGGING DATA-GENERAL-SPEED 1
 LSR1.                       0:  LOGGING DATA-NEUTRON-SCALE R 1
 LSR2.                       %:  LOGGING DATA-NEUTRON-SCALE R 2
 LTO1.                   1108':  LOGGING DATA-GENERAL-DEPTH TO 1
 LUL .                    WDLD:  LOGGING UNIT LOCATION
 LUN .                   49599:  LOGGING UNIT NUMBER
 MCSS.                    MEAS:  MUD CAKE SAMPLE SOURCE
 MCST.                    40 F:  MUDCAKE SAMPLE TEMPERATURE
 MFSS.                    MEAS:  MUD FILTRATE SAMPLE SOURCE
 MFST.                    45 F:  MUD FILTRATE SAMPLE TEMPERATURE
 MRT .                   162 F:  MAXIMUM RECORDED TEMPERATURE
 MSS .                FLOWLINE:  SOURCE OF MUD SAMPLE
 MST .                    51 F:  MUD SAMPLE TEMPERATURE
 OS1 .                    NGRT:  OTHER SERVICES LINE 1
 OS2 .                    FIAC:  OTHER SERVICES LINE 2
 OS3 .                    HRTT:  OTHER SERVICES LINE 3
 OTH1.                      NA:  RES. EQUIP DATA: OTHER 1 (OH)
 PDAT.                    G.L.:  PERMANENT DATUM
 PGMV.                 XL v5.8:  PROGRAM VERSION
 PT1 .                      NA:  RES. EQUIP DATA: PAD TYPE 1 (OH)
 R1  .    ANNULAR HOLE VOLUME CALCULATED USING 13.375" CASING.:  REMARKS LINE 1
 R10 .    CREW: M. EMERSON, A, CARRASCO.                              RIG: NABORS NO. 633.:  REMARKS LINE 10
 R2  .    HRID-SDLT-DSNT-NGRT-FIAC-HRTT-RWCH RUN IN COMBINATION.:  REMARKS LINE 2
 R3  .    MAX. READ THERMOMETERS: 162F, AND 162 F.:  REMARKS LINE 3
 R4  .    MAX. READ FROM TEMP TOOL. 163.5 F @ 3981'.:  REMARKS LINE 4
 RANG.                     12E:  RANGE
 RMB .                   1.883:  RESISTIVITY OF MUD - BHT
 RMCS.                   5.720:  RESISTIVITY OF MUDCAKE SAMPLE
 RMFS.                   5.140:  RESISTIVITY OF MUD FILTRATE SAMPLE
 RMS .                   5.500:  RESISTIVITY OF MUD SAMPLE
 RRN1.                     ONE:  RES. EQUIP DATA: RUN NO 1 (OH)
 RUN .                     ONE:  RUN NUMBER 1
 SECT.                      29:  SECTION
 SON .                 5932371:  SERVICE/TICKET ORDER NUMBER
 PROV.                      OR:  STATE
 TCS .              1400 06-04:  TIME CIRCULATION STOPPED
 TDD .                   4409':  DRILLERS DEPTH
 TDL .                   4396':  LOGGERS DEPTH
 TLAB.              0050 06-05:  TIME LOGGING ON BOTTOM
 TLI .                   1108':  TOP LOGGED INTERVAL
 TN1 .           HRIT #211_132:  RES. EQUIP DATA: TOOL TYPE & NO. 1 (OH)
 TOWN.                     21S:  TOWNSHIP
 TPS1.                1.50" SO:  RES. EQUIP DATA: TOOL POS. 1 (OH)
 TITLE1.    HIGH RES. INDUCTION:  HEADER TITLE LINE 1
 TITLE2.      SPECTRAL DENSITY:  HEADER TITLE LINE 2
 TITLE3.    DUAL SPACED NEUTRON:  HEADER TITLE LINE 3
 TITLE4.               5"=100':  HEADER TITLE LINE 4
 WITN.              R. BALDWIN:  WITNESS 1 NAME
 WELL.               NWG 55-29:  WELL NAME
 XTP .                      TD:  MAX. REC TEMP. @ 1 (OPEN HOLE)
~Parameter Information Block
#MNEM.UNIT       Value        Description
#---------     -----------    ---------------------------
~Curve Information Block
#MNEM.UNIT                 API CODE     Curve Description
#---------               -----------    ---------------------------
 DEPT.F                 00 000 000 000:  
 DFL .OHMM              00 000 000 000:  DIGITALLY FOCUSED LATEROLOG            
 DLOD.LB                00 000 000 000:  CABLE HEAD TENSION                     
 DPHI.DECP              00 000 000 000:  DENSITY POROSITY                       
 DRHO.G/CC              00 000 000 000:  DENSITY CORRECTION                     
 FDSN.CPS               00 000 000 000:  DSN FAR COUNTS                         
 GR  .GAPI              00 000 000 000:  NATURAL GAMMA                          
 HDCN.MMHO              00 000 000 000:  HRI DEEP CONDUCTIVITY                  
 HDRS.OHMM              00 000 000 000:  HRI DEEP RESISTIVITY                   
 HMRS.OHMM              00 000 000 000:  HRI MEDIUM RESISTIVITY                 
 NDSN.CPS               00 000 000 000:  DSN NEAR COUNTS                        
 NPHI.DECP              00 000 000 000:  NEUTRON POROSITY                       
 NRAT.C/C               00 000 000 000:  DSN (NDSN/FDSN) RATIO                  
 PE  .                  00 000 000 000:  PHOTO-ELECTRIC FACTOR                  
 RHOB.G/CC              00 000 000 000:  BULK DENSITY                           
 SPA .MV                00 000 000 000:  ANALOG SPONTANEOUS POTENTIAL           
 TEMP.DEGF              00 000 000 000:  TEMPERATURE                            
 TENS.LBS               00 000 000 000:  CABLE TENSION                          
 AHVT_1ARM.FT3          00 000 000 000:  ANNULAR VOLUME TOTAL                   
 BHVT_1ARM.FT3          00 000 000 000:  BOREHOLE VOLUME TOTAL                  
 CALI_1ARM.IN           00 000 000 000:  CALIPER                                
 AHVT_4ARM.FT3          00 000 000 000:  ANNULAR VOLUME TOTAL                   
 BHVT_4ARM.FT3          00 000 000 000:  BOREHOLE VOLUME TOTAL                  
 C13 .IN                00 000 000 000:  FOUR ARM CALIPER ARMS 1 & 3            
 C24 .IN                00 000 000 000:  FOUR ARM CALIPER ARMS 2 & 4            
 CALA_4ARM.IN           00 000 000 000:  AVERAGE CALIPER (C1+C2)/2              
~A  DEPT        DFL        DLOD       DPHI       DRHO       FDSN       GR         HDCN       HDRS       HMRS       NDSN       NPHI       NRAT       PE         RHOB       SPA        TEMP       TENS     AHVT_1ARM  BHVT_1ARM  CALI_1ARM  AHVT_4ARM  BHVT_4ARM    C13        C24      CALA_4ARM
# ...
 3947.8333     4.9702  1624.0446     0.0974     0.0232  2533.9390    30.0049   221.8750     4.5070     4.7878 16326.9736     0.2504     6.5770     3.7928     2.4893   170.8834   163.0399  3469.6621   559.3351  1004.0086    20.1813   428.5663   876.1689    15.7590    21.7750    18.7670 
 3948.3333     5.0200  1623.5598     0.0981     0.0253  2562.5771    29.0781   225.3974     4.4366     4.7043 16472.4629     0.2495     6.5580     3.7365     2.4881   171.1062   163.0639  3472.4312   558.7141  1002.8997    20.1494   428.1182   875.2329    15.7752    21.7733    18.7743 
 3948.8333     5.0194  1624.0446     0.0895     0.0282  2635.2468    28.0308   227.7827     4.3901     4.6556 16671.9570     0.2446     6.4562     3.6817     2.5023   171.4268   163.1029  3471.9421   558.0950  1001.7928    20.0909   427.6688   874.2957    15.7976    21.7663    18.7819 
 3949.3333     5.0653  1620.6533     0.0714     0.0353  2746.3633    28.1514   229.6604     4.3543     4.6396 16861.4336     0.2351     6.2635     3.6005     2.5321   171.7174   163.1575  3474.0598   557.4838  1000.6937    20.0351   427.2189   873.3578    15.8314    21.7520    18.7917 
 3949.8333     4.9638  1623.0751     0.0596     0.0426  2832.8054    27.7515   234.5226     4.2640     4.5594 16964.3242     0.2274     6.1078     3.4777     2.5517   172.1602   163.1867  3486.6001   556.8799   999.6020    19.9819   426.7673   872.4185    15.8422    21.7604    18.8013 
 3950.3333     4.4933  1634.4579     0.0598     0.0437  2864.1399    27.8911   248.0466     4.0315     4.2747 16941.5273     0.2237     6.0314     3.3549     2.5513   172.5704   163.2197  3509.0754   556.2776   998.5118    20.0324   426.3152   871.4786    15.8295    21.7568    18.7931 
 3950.8333     3.8044  1644.8722     0.0653     0.0396  2848.8669    27.5293   275.0469     3.6357     3.8091 16853.6680     0.2238     6.0320     3.3282     2.5423   172.9779   163.2406  3526.3389   555.6680   997.4144    20.1228   425.8648   870.5403    15.7696    21.7424    18.7560 
 3951.3333     3.2976  1653.1071     0.0600     0.0420  2862.8008    27.3199   305.9752     3.2682     3.4317 16830.6777     0.2221     5.9955     3.3974     2.5510   173.3501   163.2555  3528.4561   555.0485   996.3071    20.2238   425.4186   869.6063    15.7157    21.7451    18.7304 
 3951.8333     3.1694  1653.8333     0.0496     0.0454  2936.0679    27.6499   316.2306     3.1622     3.3589 16913.1875     0.2160     5.8769     3.4964     2.5681   173.5158   163.2598  3521.1272   554.4136   995.1844    20.3887   424.9751   868.6749    15.6902    21.7482    18.7192 
 3952.3333     3.4825  1654.0756     0.0348     0.0519  3037.5396    27.7705   294.5025     3.3956     3.6246 17043.1270     0.2082     5.7245     3.5096     2.5926   173.6163   163.2633  3520.1499   553.7649   994.0478    20.4472   424.5321   867.7440    15.7108    21.7388    18.7248 
 3952.8333     4.1920  1652.6223     0.0197     0.0558  3150.2302    26.3995   256.0599     3.9053     4.1502 17199.6113     0.2003     5.5714     3.4359     2.6176   173.7467   163.2729  3530.4104   553.1124   992.9075    20.4817   424.0881   866.8122    15.6988    21.7456    18.7222 
 3953.3333     5.2502  1656.4974     0.0102     0.0550  3296.7131    24.9586   219.2968     4.5600     4.8773 17386.2266     0.1907     5.3850     3.3495     2.6332   173.7195   163.2766  3541.6482   552.4539   991.7610    20.4764   423.6453   865.8815    15.6972    21.7382    18.7177 
 3953.8333     6.6509  1655.0441    -0.0010     0.0562  3442.6592    23.8922   189.4158     5.2794     5.8137 17526.2461     0.1809     5.1950     3.3135     2.6517   173.6924   163.2781  3527.4792   551.8035   990.6228    20.3302   423.2024   864.9507    15.6937    21.7393    18.7165 
 3954.3333     8.1900  1644.8722    -0.0081     0.0596  3493.8127    24.0890   168.4909     5.9350     6.8087 17484.1797     0.1760     5.1035     3.2928     2.6634   173.6734   163.2743  3503.3752   551.1608   989.4922    20.3913   422.7591   864.0196    15.7237    21.7556    18.7397 
 3954.8333     9.5474  1637.8492    -0.0162     0.0724  3421.5767    25.0665   155.3750     6.4360     7.5906 17218.0078     0.1768     5.1347     3.2388     2.6767   173.5674   163.2629  3491.8118   550.5116   988.3552    20.4259   422.3142   863.0868    15.7447    21.7390    18.7419 
 3955.3333    10.0382  1633.7318    -0.0156     0.0859  3253.0076    27.0850   145.8127     6.8581     8.0932 16900.2402     0.1848     5.3085     3.1562     2.6757   173.4397   163.2494  3504.1895   549.8673   987.2230    20.1680   421.8680   862.1528    15.7644    21.7447    18.7546 
 3955.8333    10.0058  1645.1146     0.0022     0.0831  3064.3047    29.6875   137.3779     7.2792     8.4051 16712.5508     0.1981     5.5732     3.0986     2.6463   173.2604   163.2388  3528.4561   549.2488   986.1167    20.0803   421.4210   861.2179    15.7553    21.7504    18.7529 
 3956.3333     9.7317  1648.5049     0.0227     0.0698  3000.9160    31.1094   126.3637     7.9137     8.8583 16707.6699     0.2042     5.6844     3.1103     2.6125   172.7524   163.2350  3539.6938   548.6368   985.0168    20.0829   420.9736   860.2826    15.7744    21.7686    18.7715 
 3956.8333     9.6043  1645.5994     0.0305     0.0547  3105.2046    30.4302   115.8030     8.6354     9.6144 16888.6426     0.1980     5.5546     3.1867     2.5997   172.5351   163.2401  3531.7134   548.0244   983.9166    20.0749   420.5248   859.3460    15.7759    21.7630    18.7695 
 3957.3333    10.1588  1633.7318     0.0230     0.0387  3269.9487    29.1733   106.3385     9.4039    10.9285 17161.2383     0.1881     5.3589     3.3574     2.6121   172.3287   163.2542  3511.1924   547.4089   982.8132    20.1600   420.0765   858.4099    15.7495    21.7423    18.7459 
 3957.8333    11.5617  1619.6848     0.0171     0.0282  3493.0461    28.3228    91.2544    10.9584    13.4043 17387.1758     0.1749     5.0945     3.5170     2.6218   171.9945   163.2751  3493.9290   546.7858   981.7022    20.2584   419.6312   857.4767    15.7269    21.7320    18.7294 
 3958.3333    14.5195  1609.2705     0.0164     0.0310  3750.7085    28.0244    73.4706    13.6109    17.1361 17444.3945     0.1582     4.7567     3.5390     2.6229   171.9320   163.2797  3484.8086   546.1572   980.5858    20.2584   419.1867   856.5444    15.7526    21.7325    18.7425 
 3958.8333    18.8726  1604.6693     0.0097     0.0597  3852.5762    28.6402    60.9588    16.4045    21.0580 17292.1719     0.1489     4.5781     3.3102     2.6340   171.6658   163.2834  3485.7856   545.5263   979.4670    20.2637   418.7403   855.6101    15.7892    21.7208    18.7550 
 3959.3333    23.4110  1606.1226    -0.0040     0.0979  3784.7356    28.9068    53.6343    18.6448    24.5233 17099.9824     0.1497     4.6081     3.0290     2.6566   170.9486   163.2757  3490.3459   544.8953   978.3481    20.2424   418.2926   854.6746    15.8185    21.7013    18.7599 
 3959.8333    26.7732  1609.9976    -0.0210     0.1079  3701.3792    29.4146    47.7839    20.9275    27.6500 17017.4473     0.1531     4.6882     2.9346     2.6846   170.2342   163.2651  3497.6748   544.2634   977.2285    20.3541   417.8426   853.7367    15.8835    21.6996    18.7916 
 3960.3333    28.3529  1617.0206    -0.0307     0.0846  3656.9805    28.5386    43.0529    23.2272    30.1689 16957.5566     0.1547     4.7278     3.0731     2.7007   169.4301   163.2553  3499.7922   543.6221   976.0992    20.3780   417.3901   852.7963    15.9148    21.6813    18.7980 
 3960.8333    28.4912  1613.6302    -0.0266     0.0737  3609.6743    27.3262    41.2127    24.2644    30.7912 16833.7031     0.1562     4.7559     3.1539     2.6940   168.7482   163.2507  3497.3491   542.9761   974.9655    20.4286   416.9369   851.8553    15.8539    21.6836    18.7687 
 3961.3333    27.5425  1614.5988    -0.0112     0.0951  3548.8877    25.6695    46.8859    21.3284    26.0381 16808.9023     0.1606     4.8314     3.0669     2.6685   168.2158   163.2327  3494.7434   542.3271   973.8286    20.4126   416.4885   850.9189    15.8246    21.6214    18.7230 
