~Version Information
 VERS.                  2.0:   CWLS log ASCII Standard -VERSION 2.0
 WRAP.                   NO:   One line per depth step
~Well Information Block
#MNEM.UNIT       Data Type    Information
#---------     -----------    ---------------------------
 STRT.F              1021.8333:
 STOP.F              4406.3335:
 STEP.F                 0.5000:
 NULL.               -999.2500:
 APD .                   31.0':  ABOVE PERMANENT DATUM
 UWI .           36-017-900042:  API WELLHOLE NUMBER
 BHT .                   162 F:  BOTTOMHOLE TEMPERATURE
 BLI .                   4387':  BOTTOM LOGGED INTERVAL
 BS  .                 17.500":  BIT SIZE
 CBD .                   1108':  CASING BOTTOM DRILLER
 CBL .                   1108':  CASING BOTTOM LOGGER
 COMP.    NORTHWEST GEOTHERMAL:  COMPANY NAME
 COUN.               DESCHUTES:  COUNTY
 CS  .                 20.000":  CASING DIAMETER
 DATE.             JUN-04-2008:  LOGGING DATE
 DFD .                    10.4:  DRILLING FLUID DENSITY
 DFL .                    10.4:  DRILLING FLUID LOSS
 DFPH.                     8.0:  DRILLING FLUID PH
 DFT .                    LSND:  DRILLING FLUID TYPE
 DFV .                    52.0:  DRILLING FLUID VISCOSITY
 DMF .                    K.B.:  DRILLING MEASURED
 EDF .               ---------:  ELEVATION OF DRILLING FLOOR
 EDIA.                  5.500":  EQUIP. DATA-DENSITY-DIAMETER
 EDOD.                 SDLT-DA:  EQUIP. DATA-DENSITY-MODEL NO.
 EDS1.                   10.0':  EQUIP. DATA-GAMMA-DISTANCE TO SOURCE
 EDSN.                 2694 GW:  EQUIP. DATA-DENSITY-SOURCE SERIAL NO.
 EDT .                     432:  EQUIP. DATA-GAMMA-DETECTOR MODEL NO.
 EDTR.                  1.5 CI:  EQUIP. DATA-DENSITY-STRENGTH
 EDUN.                     ONE:  EQUIP. DATA-DENSITY-RUN NO.
 EFWD.                      NO:  EQUIP. DATA-ACOUSTIC-FWDA
 EGL .                --------:  ELEVATION OF GROUND LEVEL
 EGMD.                    NGRT:  EQUIP. DATA-GAMMA-MODEL NO.
 EGRN.                     ONE:  EQUIP. DATA-GAMMA-RUN NO.
 EGSN.                   A-175:  EQUIP. DATA-GAMMA-SERIAL NO.
 EKB .                --------:  ELEVATION OF KELLY BUSHING
 ELGT.                 GAM-GAM:  EQUIP. DATA-DENSITY-LOG TYPE
 ELN1.                   4.00":  EQUIP. DATA-GAMMA-LENGTH
 EMIA.                  3.625":  EQUIP. DATA-GAMMA-DIAMETER
 ENER.                I714M741:  EQUIP. DATA-DENSITY-SERIAL NO.
 ENGI.             G. ROUSSEAU:  ENGINEER 1 NAME
 ENGT.                 NEU-NEU:  EQUIP. DATA-NEUTRON-LOG TYPE
 ENIA.                  3.625":  EQUIP. DATA-NEUTRON-DIAMETER
 ENOD.                  DSNT-X:  EQUIP. DATA-NEUTRON-MODEL NO.
 EPD .               ---------:  ELEVATATION OF PERMANENT DATUM
 EQLA.                      NO:  EQUIP. DATA-ACOUSTIC-LSA
 ESAT.                  CS-137:  EQUIP. DATA-DENSITY-SOURCE TYPE
 ESER.                      05:  EQUIP. DATA-NEUTRON-SERIAL NO.
 ESRT.                 AM241BE:  EQUIP. DATA-NEUTRON-SOURCE TYPE
 ESSN.                 DSN-307:  EQUIP. DATA-NEUTRON-SOURCE SERIAL NO.
 ESTR.                 15.0 CI:  EQUIP. DATA-NEUTRON-STRENGTH
 ETP1.                  SCINT.:  EQUIP. DATA-GAMMA-TYPE
 EURN.                     ONE:  EQUIP. DATA-NEUTRON-RUN NO.
 FL1 .             LAT: 43.333:  FIELD LOCATION LINE 1
 FL2 .          LONG: 121.1856:  FIELD LOCATION LINE 2
 FLD .    NEWBERRY KGRA (CASCADE RANGE):  FIELD NAME
 HDRT.                   OPENH:  HEADER TYPE
 LCL1.                       0:  LOGGING DATA-GAMMA-SCALE L 1
 LCL2.                     API:  LOGGING DATA-GAMMA-SCALE L 2
 LCR1.                     150:  LOGGING DATA-GAMMA-SCALE R 1
 LCR2.                     API:  LOGGING DATA-GAMMA-SCALE R 2
 LDL1.                    1.65:  LOGGING DATA-DENSITY-SCALE L 1
 LDL2.                    GMCC:  LOGGING DATA-DENSITY-SCALE L 2
 LDR1.                    2.65:  LOGGING DATA-DENSITY-SCALE R 1
 LDR2.                    GMCC:  LOGGING DATA-DENSITY-SCALE R 2
 LDX1.                    2.65:  LOGGING DATA-DENSITY-MATRIX 1
 LDX2.                    GMCC:  LOGGING DATA-DENSITY-MATRIX 2
 LFR1.                   4396':  LOGGING DATA-GENERAL-DEPTH FROM 1
 LMF .                    K.B.:  LOG MEASURED FROM
 LMX1.                    SAND:  LOGGING DATA-NEUTRON-MATRIX 1
 LRU1.                     ONE:  LOGGING DATA-GENERAL-RUN NO. 1
 LSL1.                     .60:  LOGGING DATA-NEUTRON-SCALE L 1
 LSL2.                       %:  LOGGING DATA-NEUTRON-SCALE L 2
 LSP1.                      60:  LOGGING DATA-GENERAL-SPEED 1
 LSR1.                       0:  LOGGING DATA-NEUTRON-SCALE R 1
 LSR2.                       %:  LOGGING DATA-NEUTRON-SCALE R 2
 LTO1.                   1108':  LOGGING DATA-GENERAL-DEPTH TO 1
 LUL .                    WDLD:  LOGGING UNIT LOCATION
 LUN .                   49599:  LOGGING UNIT NUMBER
 MCSS.                    MEAS:  MUD CAKE SAMPLE SOURCE
 MCST.                    40 F:  MUDCAKE SAMPLE TEMPERATURE
 MFSS.                    MEAS:  MUD FILTRATE SAMPLE SOURCE
 MFST.                    45 F:  MUD FILTRATE SAMPLE TEMPERATURE
 MRT .                   162 F:  MAXIMUM RECORDED TEMPERATURE
 MSS .                FLOWLINE:  SOURCE OF MUD SAMPLE
 MST .                    51 F:  MUD SAMPLE TEMPERATURE
 OS1 .                    NGRT:  OTHER SERVICES LINE 1
 OS2 .                    FIAC:  OTHER SERVICES LINE 2
 OS3 .                    HRTT:  OTHER SERVICES LINE 3
 OTH1.                      NA:  RES. EQUIP DATA: OTHER 1 (OH)
 PDAT.                    G.L.:  PERMANENT DATUM
 PGMV.                 XL v5.8:  PROGRAM VERSION
 PT1 .                      NA:  RES. EQUIP DATA: PAD TYPE 1 (OH)
 R1  .    ANNULAR HOLE VOLUME CALCULATED USING 13.375" CASING.:  REMARKS LINE 1
 R10 .    CREW: M. EMERSON, A, CARRASCO.                              RIG: NABORS NO. 633.:  REMARKS LINE 10
 R2  .    HRID-SDLT-DSNT-NGRT-FIAC-HRTT-RWCH RUN IN COMBINATION.:  REMARKS LINE 2
 R3  .    MAX. READ THERMOMETERS: 162F, AND 162 F.:  REMARKS LINE 3
 R4  .    MAX. READ FROM TEMP TOOL. 163.5 F @ 3981'.:  REMARKS LINE 4
 RANG.                     12E:  RANGE
 RMB .                   1.883:  RESISTIVITY OF MUD - BHT
 RMCS.                   5.720:  RESISTIVITY OF MUDCAKE SAMPLE
 RMFS.                   5.140:  RESISTIVITY OF MUD FILTRATE SAMPLE
 RMS .                   5.500:  RESISTIVITY OF MUD SAMPLE
 RRN1.                     ONE:  RES. EQUIP DATA: RUN NO 1 (OH)
 RUN .                     ONE:  RUN NUMBER 1
 SECT.                      29:  SECTION
 SON .                 5932371:  SERVICE/TICKET ORDER NUMBER
 PROV.                      OR:  STATE
 TCS .              1400 06-04:  TIME CIRCULATION STOPPED
 TDD .                   4409':  DRILLERS DEPTH
 TDL .                   4396':  LOGGERS DEPTH
 TLAB.              0050 06-05:  TIME LOGGING ON BOTTOM
 TLI .                   1108':  TOP LOGGED INTERVAL
 TN1 .           HRIT #211_132:  RES. EQUIP DATA: TOOL TYPE & NO. 1 (OH)
 TOWN.                     21S:  TOWNSHIP
 TPS1.                1.50" SO:  RES. EQUIP DATA: TOOL POS. 1 (OH)
 TITLE1.    HIGH RES. INDUCTION:  HEADER TITLE LINE 1
 TITLE2.      SPECTRAL DENSITY:  HEADER TITLE LINE 2
 TITLE3.    DUAL SPACED NEUTRON:  HEADER TITLE LINE 3
 TITLE4.               5"=100':  HEADER TITLE LINE 4
 WITN.              R. BALDWIN:  WITNESS 1 NAME
 WELL.               NWG 55-29:  WELL NAME
 XTP .                      TD:  MAX. REC TEMP. @ 1 (OPEN HOLE)
~Parameter Information Block
#MNEM.UNIT       Value        Description
#---------     -----------    ---------------------------
~Curve Information Block
#MNEM.UNIT                 API CODE     Curve Description
#---------               -----------    ---------------------------
 DEPT.F                 00 000 000 000:  
 DFL .OHMM              00 000 000 000:  DIGITALLY FOCUSED LATEROLOG            
 DLOD.LB                00 000 000 000:  CABLE HEAD TENSION                     
 DPHI.DECP              00 000 000 000:  DENSITY POROSITY                       
 DRHO.G/CC              00 000 000 000:  DENSITY CORRECTION                     
 FDSN.CPS               00 000 000 000:  DSN FAR COUNTS                         
 GR  .GAPI              00 000 000 000:  NATURAL GAMMA                          
 HDCN.MMHO              00 000 000 000:  HRI DEEP CONDUCTIVITY                  
 HDRS.OHMM              00 000 000 000:  HRI DEEP RESISTIVITY                   
 HMRS.OHMM              00 000 000 000:  HRI MEDIUM RESISTIVITY                 
 NDSN.CPS               00 000 000 000:  DSN NEAR COUNTS                        
 NPHI.DECP              00 000 000 000:  NEUTRON POROSITY                       
 NRAT.C/C               00 000 000 000:  DSN (NDSN/FDSN) RATIO                  
 PE  .                  00 000 000 000:  PHOTO-ELECTRIC FACTOR                  
 RHOB.G/CC              00 000 000 000:  BULK DENSITY                           
 SPA .MV                00 000 000 000:  ANALOG SPONTANEOUS POTENTIAL           
 TEMP.DEGF              00 000 000 000:  TEMPERATURE                            
 TENS.LBS               00 000 000 000:  CABLE TENSION                          
 AHVT_1ARM.FT3          00 000 000 000:  ANNULAR VOLUME TOTAL                   
 BHVT_1ARM.FT3          00 000 000 000:  BOREHOLE VOLUME TOTAL                  
 CALI_1ARM.IN           00 000 000 000:  CALIPER                                
 AHVT_4ARM.FT3          00 000 000 000:  ANNULAR VOLUME TOTAL                   
 BHVT_4ARM.FT3          00 000 000 000:  BOREHOLE VOLUME TOTAL                  
 C13 .IN                00 000 000 000:  FOUR ARM CALIPER ARMS 1 & 3            
 C24 .IN                00 000 000 000:  FOUR ARM CALIPER ARMS 2 & 4            
 CALA_4ARM.IN           00 000 000 000:  AVERAGE CALIPER (C1+C2)/2              
~A  DEPT        DFL        DLOD       DPHI       DRHO       FDSN       GR         HDCN       HDRS       HMRS       NDSN       NPHI       NRAT       PE         RHOB       SPA        TEMP       TENS     AHVT_1ARM  BHVT_1ARM  CALI_1ARM  AHVT_4ARM  BHVT_4ARM    C13        C24      CALA_4ARM
# ...
 3275.8333    12.5042  1596.6768     0.0912     0.1434  2973.4902    40.2816    97.0917    10.2995    11.1505 15908.2305     0.1890     5.4619     2.1578     2.4996   167.3057   144.8049  3252.7268  1454.3390  2554.6826    21.2209  1073.0154  2176.2849    15.9270    21.2548    18.5909 
 3276.3333    12.4757  1600.5519     0.0955     0.1373  2932.9990    40.3704    98.4727    10.1551    10.9512 15942.2949     0.1936     5.5428     2.1465     2.4925   167.4008   144.8056  3246.2122  1453.6012  2553.4570    21.1172  1072.5800  2175.3616    15.8984    21.2986    18.5985 
 3276.8333    12.3854  1600.5519     0.0979     0.1336  2930.7415    41.1512   102.4961     9.7565    10.6125 15877.6797     0.1937     5.5249     2.1391     2.4885   167.5719   144.7987  3241.0005  1452.8737  2552.2417    21.0853  1072.1443  2174.4382    15.9010    21.3291    18.6151 
 3277.3333    12.6011  1598.6147     0.1047     0.1323  2842.9092    42.0970   109.3391     9.1459    10.1763 15684.7139     0.1996     5.6321     2.1227     2.4773   167.9740   144.8070  3250.9353  1452.1512  2551.0315    21.0135  1071.7063  2173.5125    15.9213    21.3680    18.6446 
 3277.8333    13.1587  1607.5748     0.1253     0.1244  2715.1416    42.3064   115.8600     8.6311    10.0537 15478.4736     0.2088     5.8185     2.1401     2.4433   168.4114   144.8086  3258.5901  1451.4401  2549.8325    20.8194  1071.2650  2172.5833    15.9620    21.4643    18.7131 
 3278.3333    14.5593  1601.0366     0.1800     0.1185  2640.1128    41.0369   120.7833     8.2793    10.3351 15382.9375     0.2146     5.9423     2.1776     2.3530   168.4195   144.8213  3250.9353  1450.7563  2548.6609    20.5163  1070.8158  2171.6460    16.0712    21.5834    18.8273 
 3278.8333    17.0212  1590.1376     0.2453     0.1540  2614.8394    41.0115   124.5320     8.0301    10.6434 15380.0186     0.2171     5.9983     2.2648     2.2452   168.5825   144.8220  3226.1802  1450.0964  2547.5129    20.5163  1070.3557  2170.6982    16.1337    21.6282    18.8809 
 3279.3333    20.3401  1575.3644     0.2585     0.2463  2607.7046    42.1858   124.7127     8.0184    10.6303 15329.9424     0.2171     5.9965     2.3161     2.2235   168.5662   144.8246  3209.8936  1449.4365  2546.3650    20.5163  1069.8925  2169.7471    16.0633    21.6016    18.8325 
 3279.8333    22.1577  1571.0046     0.2350     0.3382  2522.4780    44.5662   118.1564     8.4634    10.3015 15067.9795     0.2226     6.1079     2.3542     2.2622   168.9900   144.8241  3217.0593  1448.7766  2545.2170    20.5163  1069.4364  2168.8032    15.9500    21.6045    18.7773 
 3280.3333    18.6643  1578.0286     0.2288     0.3673  2256.1443    42.4524   104.2536     9.5920     9.6827 14530.6055     0.2487     6.6551     2.3068     2.2724   169.5714   144.8238  3219.3398  1448.1167  2544.0691    20.5110  1068.9850  2167.8638    15.8843    21.6549    18.7696 
 3280.8333    11.8732  1578.9971     0.2754     0.3320  1873.8317    37.6473    90.4590    11.0547     8.6456 13880.9453     0.3002     7.7271     2.2169     2.1957   170.0603   144.8253  3223.8997  1447.4619  2542.9263    20.5216  1068.5344  2166.9253    15.9219    21.6479    18.7849 
 3281.3333     6.9793  1578.7548     0.3170     0.2638  1567.6865    34.2577    92.8440    10.7708     7.4136 13393.7158     0.3535     8.8122     2.1280     2.1270   170.6471   144.8269  3219.0137  1446.7944  2541.7710    20.6147  1068.0820  2165.9851    16.0937    21.5667    18.8302 
 3281.8333     4.6050  1574.6373     0.2909     0.1873  1458.3407    31.6235   115.1192     8.6866     6.3346 13322.8486     0.3808     9.3246     2.2326     2.1700   171.1633   144.8215  3213.1509  1446.1240  2540.6130    20.6785  1067.6154  2165.0305    16.8261    21.5456    19.1859 
 3282.3333     3.7106  1576.0906     0.2215     0.1108  1551.9915    28.4815   151.6268     6.5951     5.6489 13822.7773     0.3749     9.1436     2.5428     2.2846   171.3099   144.8184  3220.8052  1445.4369  2539.4380    20.7450  1067.1067  2164.0339    17.1038    21.5867    19.3452 
 3282.8333     3.9607  1579.9656     0.1509     0.0582  1844.6097    23.9112   179.2594     5.5785     5.6031 14781.5088     0.3367     8.3273     2.9765     2.4010   171.7147   144.8185  3225.3655  1444.7573  2538.2705    20.5642  1066.5894  2163.0288    16.8023    21.6041    19.2032 
 3283.3333     5.4284  1582.3875     0.1014     0.0319  2341.3264    20.8454   177.6178     5.6301     6.5703 15906.9297     0.2784     7.1381     3.3202     2.4826   172.3504   144.8150  3227.4827  1444.0920  2537.1172    20.4924  1066.0994  2162.0510    16.1462    21.6258    18.8860 
 3283.8333     8.2177  1586.7472     0.0605     0.0269  2993.9539    20.1979   149.0730     6.7081     8.9042 16885.1836     0.2179     5.9209     3.5323     2.5502   172.8231   144.8153  3236.7661  1443.4443  2535.9819    20.1999  1065.6353  2161.0991    16.1080    21.6564    18.8822 
 3284.3333    12.4330  1596.6768     0.0347     0.0314  3578.9871    21.1183   115.2167     8.6793    12.3355 17506.1797     0.1738     5.0433     3.5745     2.5928   173.1436   144.8230  3247.5151  1442.8253  2534.8752    20.0856  1065.1722  2160.1482    16.0427    21.6947    18.8687 
 3284.8333    16.6281  1608.5443     0.0203     0.0491  3910.5913    22.0577    92.2863    10.8358    15.4023 17821.3164     0.1541     4.6539     3.4390     2.6166   173.4832   144.8169  3268.5244  1442.2159  2533.7781    19.9925  1064.7119  2159.2000    15.9482    21.7436    18.8459 
 3285.3333    18.3883  1615.5674     0.0119     0.0720  4060.2439    22.4386    83.4184    11.9878    16.7891 18010.9004     0.1476     4.5239     3.2023     2.6304   173.5294   144.8113  3277.3191  1441.6188  2532.6931    19.8862  1064.2555  2158.2556    15.8689    21.7502    18.8095 
 3285.8333    18.7993  1614.3564    -0.0021     0.0882  4142.3130    22.0958    86.5165    11.5585    16.6043 18171.4766     0.1451     4.4729     2.9987     2.6535   173.4941   144.8098  3266.2446  1441.0289  2531.6152    19.8862  1063.8024  2157.3147    15.8671    21.7452    18.8061 
 3286.3333    19.6634  1609.0281    -0.0154     0.0857  4218.9312    22.1910    94.7702    10.5518    15.2447 18327.0723     0.1432     4.4298     3.0049     2.6754   173.5131   144.8017  3265.5933  1440.4392  2530.5376    19.8489  1063.3491  2156.3738    15.8991    21.7217    18.8104 
 3286.8333    22.1850  1609.0281    -0.0268     0.0745  4300.6182    22.4703   105.7061     9.4602    13.2393 18436.5664     0.1405     4.3720     3.1556     2.6943   173.6842   144.8002  3258.4270  1439.8517  2529.4624    19.8729  1062.8949  2155.4316    15.9443    21.6917    18.8180 
 3287.3333    22.1294  1605.1531    -0.0147     0.0547  4283.4233    22.6798   118.1844     8.4614    11.2537 18368.2930     0.1410     4.3749     3.3062     2.6743   173.7331   144.7881  3247.3523  1439.2593  2528.3821    19.9978  1062.4395  2154.4883    15.9776    21.6835    18.8305 
 3287.8333    16.5381  1601.2780     0.0225     0.0483  4064.3469    22.1212   135.5075     7.3797     9.2635 17996.8984     0.1490     4.5277     3.2435     2.6129   173.9450   144.7875  3242.7920  1438.6542  2527.2891    19.9181  1061.9817  2153.5427    16.0019    21.7170    18.8594 
 3288.3333    10.2495  1599.8257     0.0778     0.0777  3630.4849    22.1593   174.3224     5.7365     6.8443 17253.2617     0.1675     4.8931     2.9658     2.5217   174.2927   144.7848  3243.1177  1438.0543  2526.2014    20.1281  1061.5214  2152.5947    15.9976    21.7605    18.8790 
 3288.8333     6.0270  1611.6923     0.1274     0.1382  3002.8162    22.8766   245.5560     4.0724     4.7398 16198.4795     0.2048     5.6580     2.5967     2.4397   174.3172   144.7736  3276.8306  1437.4336  2525.0928    20.1839  1061.0601  2151.6458    15.9823    21.7462    18.8642 
 3289.3333     3.7946  1622.8328     0.1684     0.1846  2309.1963    23.3971   330.8259     3.0227     3.4489 15103.5117     0.2659     6.9425     2.3360     2.3721   174.3036   144.7701  3302.7261  1436.8062  2523.9775    20.1308  1060.6012  2150.6990    15.9557    21.6948    18.8253 
