~Version Information
 VERS.                  2.0:   CWLS log ASCII Standard -VERSION 2.0
 WRAP.                   NO:   One line per depth step
~Well Information Block
#MNEM.UNIT       Data Type    Information
#---------     -----------    ---------------------------
 STRT.F              1021.8333:
 STOP.F              4406.3335:
 STEP.F                 0.5000:
 NULL.               -999.2500:
 APD .                   31.0':  ABOVE PERMANENT DATUM
 UWI .           36-017-900042:  API WELLHOLE NUMBER
 BHT .                   162 F:  BOTTOMHOLE TEMPERATURE
 BLI .                   4387':  BOTTOM LOGGED INTERVAL
 BS  .                 17.500":  BIT SIZE
 CBD .                   1108':  CASING BOTTOM DRILLER
 CBL .                   1108':  CASING BOTTOM LOGGER
 COMP.    NORTHWEST GEOTHERMAL:  COMPANY NAME
 COUN.               DESCHUTES:  COUNTY
 CS  .                 20.000":  CASING DIAMETER
 DATE.             JUN-04-2008:  LOGGING DATE
 DFD .                    10.4:  DRILLING FLUID DENSITY
 DFL .                    10.4:  DRILLING FLUID LOSS
 DFPH.                     8.0:  DRILLING FLUID PH
 DFT .                    LSND:  DRILLING FLUID TYPE
 DFV .                    52.0:  DRILLING FLUID VISCOSITY
 DMF .                    K.B.:  DRILLING MEASURED
 EDF .               ---------:  ELEVATION OF DRILLING FLOOR
 EDIA.                  5.500":  EQUIP. DATA-DENSITY-DIAMETER
 EDOD.                 SDLT-DA:  EQUIP. DATA-DENSITY-MODEL NO.
 EDS1.                   10.0':  EQUIP. DATA-GAMMA-DISTANCE TO SOURCE
 EDSN.                 2694 GW:  EQUIP. DATA-DENSITY-SOURCE SERIAL NO.
 EDT .                     432:  EQUIP. DATA-GAMMA-DETECTOR MODEL NO.
 EDTR.                  1.5 CI:  EQUIP. DATA-DENSITY-STRENGTH
 EDUN.                     ONE:  EQUIP. DATA-DENSITY-RUN NO.
 EFWD.                      NO:  EQUIP. DATA-ACOUSTIC-FWDA
 EGL .                --------:  ELEVATION OF GROUND LEVEL
 EGMD.                    NGRT:  EQUIP. DATA-GAMMA-MODEL NO.
 EGRN.                     ONE:  EQUIP. DATA-GAMMA-RUN NO.
 EGSN.                   A-175:  EQUIP. DATA-GAMMA-SERIAL NO.
 EKB .                --------:  ELEVATION OF KELLY BUSHING
 ELGT.                 GAM-GAM:  EQUIP. DATA-DENSITY-LOG TYPE
 ELN1.                   4.00":  EQUIP. DATA-GAMMA-LENGTH
 EMIA.                  3.625":  EQUIP. DATA-GAMMA-DIAMETER
 ENER.                I714M741:  EQUIP. DATA-DENSITY-SERIAL NO.
 ENGI.             G. ROUSSEAU:  ENGINEER 1 NAME
 ENGT.                 NEU-NEU:  EQUIP. DATA-NEUTRON-LOG TYPE
 ENIA.                  3.625":  EQUIP. DATA-NEUTRON-DIAMETER
 ENOD.                  DSNT-X:  EQUIP. DATA-NEUTRON-MODEL NO.
 EPD .               ---------:  ELEVATATION OF PERMANENT DATUM
 EQLA.                      NO:  EQUIP. DATA-ACOUSTIC-LSA
 ESAT.                  CS-137:  EQUIP. DATA-DENSITY-SOURCE TYPE
 ESER.                      05:  EQUIP. DATA-NEUTRON-SERIAL NO.
 ESRT.                 AM241BE:  EQUIP. DATA-NEUTRON-SOURCE TYPE
 ESSN.                 DSN-307:  EQUIP. DATA-NEUTRON-SOURCE SERIAL NO.
 ESTR.                 15.0 CI:  EQUIP. DATA-NEUTRON-STRENGTH
 ETP1.                  SCINT.:  EQUIP. DATA-GAMMA-TYPE
 EURN.                     ONE:  EQUIP. DATA-NEUTRON-RUN NO.
 FL1 .             LAT: 43.333:  FIELD LOCATION LINE 1
 FL2 .          LONG: 121.1856:  FIELD LOCATION LINE 2
 FLD .    NEWBERRY KGRA (CASCADE RANGE):  FIELD NAME
 HDRT.                   OPENH:  HEADER TYPE
 LCL1.                       0:  LOGGING DATA-GAMMA-SCALE L 1
 LCL2.                     API:  LOGGING DATA-GAMMA-SCALE L 2
 LCR1.                     150:  LOGGING DATA-GAMMA-SCALE R 1
 LCR2.                     API:  LOGGING DATA-GAMMA-SCALE R 2
 LDL1.                    1.65:  LOGGING DATA-DENSITY-SCALE L 1
 LDL2.                    GMCC:  LOGGING DATA-DENSITY-SCALE L 2
 LDR1.                    2.65:  LOGGING DATA-DENSITY-SCALE R 1
 LDR2.                    GMCC:  LOGGING DATA-DENSITY-SCALE R 2
 LDX1.                    2.65:  LOGGING DATA-DENSITY-MATRIX 1
 LDX2.                    GMCC:  LOGGING DATA-DENSITY-MATRIX 2
 LFR1.                   4396':  LOGGING DATA-GENERAL-DEPTH FROM 1
 LMF .                    K.B.:  LOG MEASURED FROM
 LMX1.                    SAND:  LOGGING DATA-NEUTRON-MATRIX 1
 LRU1.                     ONE:  LOGGING DATA-GENERAL-RUN NO. 1
 LSL1.                     .60:  LOGGING DATA-NEUTRON-SCALE L 1
 LSL2.                       %:  LOGGING DATA-NEUTRON-SCALE L 2
 LSP1.                      60:  LOGGING DATA-GENERAL-SPEED 1
 LSR1.                       0:  LOGGING DATA-NEUTRON-SCALE R 1
 LSR2.                       %:  LOGGING DATA-NEUTRON-SCALE R 2
 LTO1.                   1108':  LOGGING DATA-GENERAL-DEPTH TO 1
 LUL .                    WDLD:  LOGGING UNIT LOCATION
 LUN .                   49599:  LOGGING UNIT NUMBER
 MCSS.                    MEAS:  MUD CAKE SAMPLE SOURCE
 MCST.                    40 F:  MUDCAKE SAMPLE TEMPERATURE
 MFSS.                    MEAS:  MUD FILTRATE SAMPLE SOURCE
 MFST.                    45 F:  MUD FILTRATE SAMPLE TEMPERATURE
 MRT .                   162 F:  MAXIMUM RECORDED TEMPERATURE
 MSS .                FLOWLINE:  SOURCE OF MUD SAMPLE
 MST .                    51 F:  MUD SAMPLE TEMPERATURE
 OS1 .                    NGRT:  OTHER SERVICES LINE 1
 OS2 .                    FIAC:  OTHER SERVICES LINE 2
 OS3 .                    HRTT:  OTHER SERVICES LINE 3
 OTH1.                      NA:  RES. EQUIP DATA: OTHER 1 (OH)
 PDAT.                    G.L.:  PERMANENT DATUM
 PGMV.                 XL v5.8:  PROGRAM VERSION
 PT1 .                      NA:  RES. EQUIP DATA: PAD TYPE 1 (OH)
 R1  .    ANNULAR HOLE VOLUME CALCULATED USING 13.375" CASING.:  REMARKS LINE 1
 R10 .    CREW: M. EMERSON, A, CARRASCO.                              RIG: NABORS NO. 633.:  REMARKS LINE 10
 R2  .    HRID-SDLT-DSNT-NGRT-FIAC-HRTT-RWCH RUN IN COMBINATION.:  REMARKS LINE 2
 R3  .    MAX. READ THERMOMETERS: 162F, AND 162 F.:  REMARKS LINE 3
 R4  .    MAX. READ FROM TEMP TOOL. 163.5 F @ 3981'.:  REMARKS LINE 4
 RANG.                     12E:  RANGE
 RMB .                   1.883:  RESISTIVITY OF MUD - BHT
 RMCS.                   5.720:  RESISTIVITY OF MUDCAKE SAMPLE
 RMFS.                   5.140:  RESISTIVITY OF MUD FILTRATE SAMPLE
 RMS .                   5.500:  RESISTIVITY OF MUD SAMPLE
 RRN1.                     ONE:  RES. EQUIP DATA: RUN NO 1 (OH)
 RUN .                     ONE:  RUN NUMBER 1
 SECT.                      29:  SECTION
 SON .                 5932371:  SERVICE/TICKET ORDER NUMBER
 PROV.                      OR:  STATE
 TCS .              1400 06-04:  TIME CIRCULATION STOPPED
 TDD .                   4409':  DRILLERS DEPTH
 TDL .                   4396':  LOGGERS DEPTH
 TLAB.              0050 06-05:  TIME LOGGING ON BOTTOM
 TLI .                   1108':  TOP LOGGED INTERVAL
 TN1 .           HRIT #211_132:  RES. EQUIP DATA: TOOL TYPE & NO. 1 (OH)
 TOWN.                     21S:  TOWNSHIP
 TPS1.                1.50" SO:  RES. EQUIP DATA: TOOL POS. 1 (OH)
 TITLE1.    HIGH RES. INDUCTION:  HEADER TITLE LINE 1
 TITLE2.      SPECTRAL DENSITY:  HEADER TITLE LINE 2
 TITLE3.    DUAL SPACED NEUTRON:  HEADER TITLE LINE 3
 TITLE4.               5"=100':  HEADER TITLE LINE 4
 WITN.              R. BALDWIN:  WITNESS 1 NAME
 WELL.               NWG 55-29:  WELL NAME
 XTP .                      TD:  MAX. REC TEMP. @ 1 (OPEN HOLE)
~Parameter Information Block
#MNEM.UNIT       Value        Description
#---------     -----------    ---------------------------
~Curve Information Block
#MNEM.UNIT                 API CODE     Curve Description
#---------               -----------    ---------------------------
 DEPT.F                 00 000 000 000:  
 DFL .OHMM              00 000 000 000:  DIGITALLY FOCUSED LATEROLOG            
 DLOD.LB                00 000 000 000:  CABLE HEAD TENSION                     
 DPHI.DECP              00 000 000 000:  DENSITY POROSITY                       
 DRHO.G/CC              00 000 000 000:  DENSITY CORRECTION                     
 FDSN.CPS               00 000 000 000:  DSN FAR COUNTS                         
 GR  .GAPI              00 000 000 000:  NATURAL GAMMA                          
 HDCN.MMHO              00 000 000 000:  HRI DEEP CONDUCTIVITY                  
 HDRS.OHMM              00 000 000 000:  HRI DEEP RESISTIVITY                   
 HMRS.OHMM              00 000 000 000:  HRI MEDIUM RESISTIVITY                 
 NDSN.CPS               00 000 000 000:  DSN NEAR COUNTS                        
 NPHI.DECP              00 000 000 000:  NEUTRON POROSITY                       
 NRAT.C/C               00 000 000 000:  DSN (NDSN/FDSN) RATIO                  
 PE  .                  00 000 000 000:  PHOTO-ELECTRIC FACTOR                  
 RHOB.G/CC              00 000 000 000:  BULK DENSITY                           
 SPA .MV                00 000 000 000:  ANALOG SPONTANEOUS POTENTIAL           
 TEMP.DEGF              00 000 000 000:  TEMPERATURE                            
 TENS.LBS               00 000 000 000:  CABLE TENSION                          
 AHVT_1ARM.FT3          00 000 000 000:  ANNULAR VOLUME TOTAL                   
 BHVT_1ARM.FT3          00 000 000 000:  BOREHOLE VOLUME TOTAL                  
 CALI_1ARM.IN           00 000 000 000:  CALIPER                                
 AHVT_4ARM.FT3          00 000 000 000:  ANNULAR VOLUME TOTAL                   
 BHVT_4ARM.FT3          00 000 000 000:  BOREHOLE VOLUME TOTAL                  
 C13 .IN                00 000 000 000:  FOUR ARM CALIPER ARMS 1 & 3            
 C24 .IN                00 000 000 000:  FOUR ARM CALIPER ARMS 2 & 4            
 CALA_4ARM.IN           00 000 000 000:  AVERAGE CALIPER (C1+C2)/2              
~A  DEPT        DFL        DLOD       DPHI       DRHO       FDSN       GR         HDCN       HDRS       HMRS       NDSN       NPHI       NRAT       PE         RHOB       SPA        TEMP       TENS     AHVT_1ARM  BHVT_1ARM  CALI_1ARM  AHVT_4ARM  BHVT_4ARM    C13        C24      CALA_4ARM
# ...
 2827.8333     6.0906  1595.2235     0.1739     0.1661  1205.1075    18.1096   140.6537     7.1097     6.3273 12148.2617     0.4241    10.2850     2.2930     2.3630   173.0730   133.0188  2976.6719  2011.4440  3548.9133    19.2640  1545.5796  3085.9749    17.5845    21.8372    19.7109 
 2828.3333     5.9629  1588.9266     0.2339     0.2036  1152.3713    18.2365   156.1607     6.4037     6.0890 12063.2646     0.4466    10.6923     2.2023     2.2641   173.1545   133.0750  2969.8315  2010.9199  3547.9014    19.2507  1545.0145  3084.9219    17.8321    21.8422    19.8371 
 2828.8333     5.4777  1587.7157     0.2715     0.2192  1102.2159    18.5285   172.6658     5.7915     5.6831 11974.4795     0.4696    11.0938     2.1496     2.2020   173.2632   133.1371  2978.1377  2010.3973  3546.8909    19.1470  1544.4390  3083.8586    17.9663    21.8256    19.8960 
 2829.3333     4.9103  1590.3799     0.2811     0.1859  1081.5376    19.1696   182.6707     5.4743     5.2506 11904.7051     0.4775    11.2329     2.2135     2.1861   173.3691   133.1871  2987.2581  2009.8925  3545.8979    19.0912  1543.8538  3082.7856    18.0275    21.8264    19.9269 
 2829.8333     4.2065  1589.1691     0.2719     0.1169  1071.0796    21.4865   205.9913     4.8546     4.5616 11847.7998     0.4815    11.2906     2.4227     2.2014   173.5049   133.2329  2977.1604  2009.3877  3544.9053    19.1231  1543.2664  3081.7102    18.2277    21.8358    20.0317 
 2830.3333     3.5258  1585.0515     0.2528     0.0603  1064.4434    24.3746   260.4448     3.8396     3.7288 11798.8096     0.4834    11.3104     2.7329     2.2328   173.4669   133.2536  2967.3884  2008.8776  3543.9075    19.0912  1542.6663  3080.6223    18.4352    21.8275    20.1314 
 2830.8333     2.9486  1579.7233     0.2392     0.0355  1056.9795    26.7486   334.3040     2.9913     3.0843 11764.2607     0.4871    11.3575     2.9368     2.2553   173.4424   133.2643  2951.9163  2008.3708  3542.9128    19.0646  1542.0481  3079.5164    18.9437    21.8346    20.3892 
 2831.3333     2.5570  1577.0591     0.2346     0.0358  1018.3199    26.2154   404.1024     2.4746     2.6627 11753.8975     0.5166    11.7944     2.9174     2.2628   173.4506   133.2857  2944.0989  2007.8663  3541.9207    19.0433  1541.4020  3078.3823    19.3629    21.8171    20.5900 
 2831.8333     2.3435  1582.1450     0.2372     0.0488   971.9448    24.9268   460.1040     2.1734     2.3603 11758.8027     0.5545    12.3518     2.7098     2.2586   173.4751   133.2894  2954.3594  2007.3676  3540.9341    19.3464  1540.7324  3077.2249    19.6173    21.8220    20.7196 
 2832.3333     2.2021  1590.6223     0.2405     0.0750   954.0514    22.8004   505.7283     1.9773     2.1352 11762.1318     0.5695    12.5739     2.4488     2.2532   173.5403   133.2932  2968.0400  2006.8147  3539.8936    19.4581  1540.0511  3076.0557    19.6431    21.8273    20.7352 
 2832.8333     2.1454  1595.4658     0.2437     0.1155   953.0500    22.2990   538.4436     1.8572     1.9960 11742.0918     0.5684    12.5646     2.2657     2.2479   173.6136   133.2887  2980.9060  2006.2933  3538.8843    18.8253  1539.3689  3074.8855    19.6124    21.8454    20.7289 
 2833.3333     2.1244  1604.4269     0.2510     0.1567   958.7026    22.6544   551.3363     1.8138     1.9383 11686.7227     0.5592    12.4373     2.1873     2.2358   173.6706   133.2834  3000.1240  2005.8184  3537.9214    18.7322  1538.6953  3073.7241    19.2897    21.8497    20.5697 
 2833.8333     2.1016  1612.9032     0.2708     0.1804   968.7668    23.2384   551.4286     1.8135     1.9276 11638.1738     0.5461    12.2590     2.1706     2.2031   173.6842   133.2839  3009.8960  2005.3539  3536.9690    18.6259  1538.0343  3072.5752    19.1781    21.8469    20.5125 
 2834.3333     2.0459  1619.9271     0.2823     0.1801   975.0879    22.2926   551.6619     1.8127     1.9401 11664.0420     0.5413    12.2010     2.1945     2.1843   173.5973   133.2752  3025.5310  2004.8921  3536.0193    18.8120  1537.3827  3071.4358    19.2107    21.8506    20.5306 
 2834.8333     2.0299  1627.4349     0.2591     0.1501   989.9511    20.2868   544.1767     1.8376     1.9978 11803.8691     0.5389    12.1622     2.3061     2.2225   173.4370   133.2691  3034.6516  2004.4027  3535.0420    19.3996  1536.7247  3070.2903    19.1524    21.8574    20.5049 
 2835.3333     2.1248  1622.5913     0.2106     0.1088  1049.7391    19.3854   513.9612     1.9457     2.1405 12039.8955     0.5133    11.7499     2.5055     2.3025   173.3039   133.2517  3024.3911  2003.8656  3534.0171    19.1683  1536.0726  3069.1504    19.0090    21.8561    20.4326 
 2835.8333     2.3622  1620.4109     0.1651     0.0871  1186.2427    19.2204   466.3512     2.1443     2.4000 12316.2383     0.4512    10.7147     2.6896     2.3776   173.2142   133.2426  3032.3713  2003.3641  3533.0278    18.8014  1535.4329  3068.0229    18.6498    21.8503    20.2500 
 2836.3333     2.7895  1626.9502     0.1363     0.0995  1357.8975    20.0963   402.7891     2.4827     2.8442 12583.0703     0.3837     9.5292     2.7016     2.4252   173.3093   133.2334  3046.0518  2002.8936  3532.0696    18.6578  1534.8120  3066.9143    18.4344    21.8513    20.1428 
 2836.8333     3.4488  1627.9187     0.0991     0.1323  1485.1643    21.4230   319.7358     3.1276     3.6023 12805.5312     0.3454     8.8101     2.5916     2.4865   173.6272   133.2114  3055.3354  2002.4385  3531.1267    18.4531  1534.2048  3065.8191    18.2183    21.8487    20.0335 
 2837.3333     4.5241  1624.5283     0.0576     0.1589  1567.6914    22.3243   240.8960     4.1512     4.7318 12947.1387     0.3264     8.4312     2.4837     2.5549   174.0320   133.1835  3047.3547  2001.9923  3530.1926    18.6870  1533.6156  3064.7422    17.6489    21.8491    19.7490 
 2837.8333     5.9245  1606.6063     0.0370     0.1558  1622.4176    22.3434   200.7699     4.9808     5.9139 12966.0332     0.3125     8.1542     2.5334     2.5890   174.4530   133.1443  3007.7788  2001.5192  3529.2317    19.0433  1533.0590  3063.6975    17.2414    21.8539    19.5477 
 2838.3333     7.0961  1591.8331     0.0532     0.1179  1616.2708    20.3566   197.8569     5.0542     6.5868 12890.9336     0.3115     8.1368     2.7250     2.5622   174.9773   133.0944  2978.7891  2001.0186  3528.2434    19.1390  1532.5214  3062.6721    17.2639    21.8546    19.5593 
 2838.8333     7.2069  1584.5677     0.0783     0.0776  1547.3116    19.1315   211.6451     4.7249     6.6326 12808.7490     0.3279     8.4586     2.9708     2.5208   175.2897   133.0231  2964.4570  2000.5022  3527.2393    19.2587  1531.9771  3061.6399    17.5198    21.8275    19.6737 
 2839.3333     6.7356  1587.4734     0.0889     0.0563  1476.0505    20.4137   223.8160     4.4680     6.4693 12792.0830     0.3483     8.8540     3.1439     2.5034   175.3223   132.9548  2970.4829  1999.9769  3526.2263    19.2720  1531.4210  3060.5959    17.5246    21.8219    19.6733 
 2839.8333     6.6401  1594.2550     0.0824     0.0510  1482.9104    24.0128   223.0866     4.4826     6.6349 12871.6885     0.3494     8.8698     3.2859     2.5141   175.3413   132.9174  2977.4861  1999.4526  3525.2144    19.2321  1530.8665  3059.5535    17.4907    21.8237    19.6572 
 2840.3333     7.5067  1591.3484     0.0527     0.0500  1564.7931    25.4664   203.8799     4.9048     7.4494 12993.4355     0.3300     8.4879     3.4402     2.5631   175.1919   132.8618  2966.2485  1998.9348  3524.2085    19.1497  1530.3146  3058.5137    17.4197    21.8260    19.6228 
 2840.8333     9.6457  1585.5364     0.0153     0.0475  1659.8383    23.9493   177.3728     5.6378     8.7783 13078.1885     0.3080     8.0492     3.6429     2.6248   174.7573   132.8163  2950.4504  1998.4218  3523.2075    19.1071  1529.7660  3057.4773    17.3655    21.8293    19.5974 
 2841.3333    12.8495  1578.5123    -0.0090     0.0416  1742.6237    22.6417   168.9315     5.9196     9.1728 13102.9434     0.2894     7.6772     3.7644     2.6648   174.2982   132.7804  2942.7959  1997.9163  3522.2144    19.1151  1529.2207  3056.4441    17.3021    21.8361    19.5691 
