~Version Information
 VERS.                  2.0:   CWLS log ASCII Standard -VERSION 2.0
 WRAP.                   NO:   One line per depth step
~Well Information Block
#MNEM.UNIT       Data Type    Information
#---------     -----------    ---------------------------
 STRT.F              1021.8333:
 STOP.F              4406.3335:
 STEP.F                 0.5000:
 NULL.               -999.2500:
 APD .                   31.0':  ABOVE PERMANENT DATUM
 UWI .           36-017-900042:  API WELLHOLE NUMBER
 BHT .                   162 F:  BOTTOMHOLE TEMPERATURE
 BLI .                   4387':  BOTTOM LOGGED INTERVAL
 BS  .                 17.500":  BIT SIZE
 CBD .                   1108':  CASING BOTTOM DRILLER
 CBL .                   1108':  CASING BOTTOM LOGGER
 COMP.    NORTHWEST GEOTHERMAL:  COMPANY NAME
 COUN.               DESCHUTES:  COUNTY
 CS  .                 20.000":  CASING DIAMETER
 DATE.             JUN-04-2008:  LOGGING DATE
 DFD .                    10.4:  DRILLING FLUID DENSITY
 DFL .                    10.4:  DRILLING FLUID LOSS
 DFPH.                     8.0:  DRILLING FLUID PH
 DFT .                    LSND:  DRILLING FLUID TYPE
 DFV .                    52.0:  DRILLING FLUID VISCOSITY
 DMF .                    K.B.:  DRILLING MEASURED
 EDF .               ---------:  ELEVATION OF DRILLING FLOOR
 EDIA.                  5.500":  EQUIP. DATA-DENSITY-DIAMETER
 EDOD.                 SDLT-DA:  EQUIP. DATA-DENSITY-MODEL NO.
 EDS1.                   10.0':  EQUIP. DATA-GAMMA-DISTANCE TO SOURCE
 EDSN.                 2694 GW:  EQUIP. DATA-DENSITY-SOURCE SERIAL NO.
 EDT .                     432:  EQUIP. DATA-GAMMA-DETECTOR MODEL NO.
 EDTR.                  1.5 CI:  EQUIP. DATA-DENSITY-STRENGTH
 EDUN.                     ONE:  EQUIP. DATA-DENSITY-RUN NO.
 EFWD.                      NO:  EQUIP. DATA-ACOUSTIC-FWDA
 EGL .                --------:  ELEVATION OF GROUND LEVEL
 EGMD.                    NGRT:  EQUIP. DATA-GAMMA-MODEL NO.
 EGRN.                     ONE:  EQUIP. DATA-GAMMA-RUN NO.
 EGSN.                   A-175:  EQUIP. DATA-GAMMA-SERIAL NO.
 EKB .                --------:  ELEVATION OF KELLY BUSHING
 ELGT.                 GAM-GAM:  EQUIP. DATA-DENSITY-LOG TYPE
 ELN1.                   4.00":  EQUIP. DATA-GAMMA-LENGTH
 EMIA.                  3.625":  EQUIP. DATA-GAMMA-DIAMETER
 ENER.                I714M741:  EQUIP. DATA-DENSITY-SERIAL NO.
 ENGI.             G. ROUSSEAU:  ENGINEER 1 NAME
 ENGT.                 NEU-NEU:  EQUIP. DATA-NEUTRON-LOG TYPE
 ENIA.                  3.625":  EQUIP. DATA-NEUTRON-DIAMETER
 ENOD.                  DSNT-X:  EQUIP. DATA-NEUTRON-MODEL NO.
 EPD .               ---------:  ELEVATATION OF PERMANENT DATUM
 EQLA.                      NO:  EQUIP. DATA-ACOUSTIC-LSA
 ESAT.                  CS-137:  EQUIP. DATA-DENSITY-SOURCE TYPE
 ESER.                      05:  EQUIP. DATA-NEUTRON-SERIAL NO.
 ESRT.                 AM241BE:  EQUIP. DATA-NEUTRON-SOURCE TYPE
 ESSN.                 DSN-307:  EQUIP. DATA-NEUTRON-SOURCE SERIAL NO.
 ESTR.                 15.0 CI:  EQUIP. DATA-NEUTRON-STRENGTH
 ETP1.                  SCINT.:  EQUIP. DATA-GAMMA-TYPE
 EURN.                     ONE:  EQUIP. DATA-NEUTRON-RUN NO.
 FL1 .             LAT: 43.333:  FIELD LOCATION LINE 1
 FL2 .          LONG: 121.1856:  FIELD LOCATION LINE 2
 FLD .    NEWBERRY KGRA (CASCADE RANGE):  FIELD NAME
 HDRT.                   OPENH:  HEADER TYPE
 LCL1.                       0:  LOGGING DATA-GAMMA-SCALE L 1
 LCL2.                     API:  LOGGING DATA-GAMMA-SCALE L 2
 LCR1.                     150:  LOGGING DATA-GAMMA-SCALE R 1
 LCR2.                     API:  LOGGING DATA-GAMMA-SCALE R 2
 LDL1.                    1.65:  LOGGING DATA-DENSITY-SCALE L 1
 LDL2.                    GMCC:  LOGGING DATA-DENSITY-SCALE L 2
 LDR1.                    2.65:  LOGGING DATA-DENSITY-SCALE R 1
 LDR2.                    GMCC:  LOGGING DATA-DENSITY-SCALE R 2
 LDX1.                    2.65:  LOGGING DATA-DENSITY-MATRIX 1
 LDX2.                    GMCC:  LOGGING DATA-DENSITY-MATRIX 2
 LFR1.                   4396':  LOGGING DATA-GENERAL-DEPTH FROM 1
 LMF .                    K.B.:  LOG MEASURED FROM
 LMX1.                    SAND:  LOGGING DATA-NEUTRON-MATRIX 1
 LRU1.                     ONE:  LOGGING DATA-GENERAL-RUN NO. 1
 LSL1.                     .60:  LOGGING DATA-NEUTRON-SCALE L 1
 LSL2.                       %:  LOGGING DATA-NEUTRON-SCALE L 2
 LSP1.                      60:  LOGGING DATA-GENERAL-SPEED 1
 LSR1.                       0:  LOGGING DATA-NEUTRON-SCALE R 1
 LSR2.                       %:  LOGGING DATA-NEUTRON-SCALE R 2
 LTO1.                   1108':  LOGGING DATA-GENERAL-DEPTH TO 1
 LUL .                    WDLD:  LOGGING UNIT LOCATION
 LUN .                   49599:  LOGGING UNIT NUMBER
 MCSS.                    MEAS:  MUD CAKE SAMPLE SOURCE
 MCST.                    40 F:  MUDCAKE SAMPLE TEMPERATURE
 MFSS.                    MEAS:  MUD FILTRATE SAMPLE SOURCE
 MFST.                    45 F:  MUD FILTRATE SAMPLE TEMPERATURE
 MRT .                   162 F:  MAXIMUM RECORDED TEMPERATURE
 MSS .                FLOWLINE:  SOURCE OF MUD SAMPLE
 MST .                    51 F:  MUD SAMPLE TEMPERATURE
 OS1 .                    NGRT:  OTHER SERVICES LINE 1
 OS2 .                    FIAC:  OTHER SERVICES LINE 2
 OS3 .                    HRTT:  OTHER SERVICES LINE 3
 OTH1.                      NA:  RES. EQUIP DATA: OTHER 1 (OH)
 PDAT.                    G.L.:  PERMANENT DATUM
 PGMV.                 XL v5.8:  PROGRAM VERSION
 PT1 .                      NA:  RES. EQUIP DATA: PAD TYPE 1 (OH)
 R1  .    ANNULAR HOLE VOLUME CALCULATED USING 13.375" CASING.:  REMARKS LINE 1
 R10 .    CREW: M. EMERSON, A, CARRASCO.                              RIG: NABORS NO. 633.:  REMARKS LINE 10
 R2  .    HRID-SDLT-DSNT-NGRT-FIAC-HRTT-RWCH RUN IN COMBINATION.:  REMARKS LINE 2
 R3  .    MAX. READ THERMOMETERS: 162F, AND 162 F.:  REMARKS LINE 3
 R4  .    MAX. READ FROM TEMP TOOL. 163.5 F @ 3981'.:  REMARKS LINE 4
 RANG.                     12E:  RANGE
 RMB .                   1.883:  RESISTIVITY OF MUD - BHT
 RMCS.                   5.720:  RESISTIVITY OF MUDCAKE SAMPLE
 RMFS.                   5.140:  RESISTIVITY OF MUD FILTRATE SAMPLE
 RMS .                   5.500:  RESISTIVITY OF MUD SAMPLE
 RRN1.                     ONE:  RES. EQUIP DATA: RUN NO 1 (OH)
 RUN .                     ONE:  RUN NUMBER 1
 SECT.                      29:  SECTION
 SON .                 5932371:  SERVICE/TICKET ORDER NUMBER
 PROV.                      OR:  STATE
 TCS .              1400 06-04:  TIME CIRCULATION STOPPED
 TDD .                   4409':  DRILLERS DEPTH
 TDL .                   4396':  LOGGERS DEPTH
 TLAB.              0050 06-05:  TIME LOGGING ON BOTTOM
 TLI .                   1108':  TOP LOGGED INTERVAL
 TN1 .           HRIT #211_132:  RES. EQUIP DATA: TOOL TYPE & NO. 1 (OH)
 TOWN.                     21S:  TOWNSHIP
 TPS1.                1.50" SO:  RES. EQUIP DATA: TOOL POS. 1 (OH)
 TITLE1.    HIGH RES. INDUCTION:  HEADER TITLE LINE 1
 TITLE2.      SPECTRAL DENSITY:  HEADER TITLE LINE 2
 TITLE3.    DUAL SPACED NEUTRON:  HEADER TITLE LINE 3
 TITLE4.               5"=100':  HEADER TITLE LINE 4
 WITN.              R. BALDWIN:  WITNESS 1 NAME
 WELL.               NWG 55-29:  WELL NAME
 XTP .                      TD:  MAX. REC TEMP. @ 1 (OPEN HOLE)
~Parameter Information Block
#MNEM.UNIT       Value        Description
#---------     -----------    ---------------------------
~Curve Information Block
#MNEM.UNIT                 API CODE     Curve Description
#---------               -----------    ---------------------------
 DEPT.F                 00 000 000 000:  
 DFL .OHMM              00 000 000 000:  DIGITALLY FOCUSED LATEROLOG            
 DLOD.LB                00 000 000 000:  CABLE HEAD TENSION                     
 DPHI.DECP              00 000 000 000:  DENSITY POROSITY                       
 DRHO.G/CC              00 000 000 000:  DENSITY CORRECTION                     
 FDSN.CPS               00 000 000 000:  DSN FAR COUNTS                         
 GR  .GAPI              00 000 000 000:  NATURAL GAMMA                          
 HDCN.MMHO              00 000 000 000:  HRI DEEP CONDUCTIVITY                  
 HDRS.OHMM              00 000 000 000:  HRI DEEP RESISTIVITY                   
 HMRS.OHMM              00 000 000 000:  HRI MEDIUM RESISTIVITY                 
 NDSN.CPS               00 000 000 000:  DSN NEAR COUNTS                        
 NPHI.DECP              00 000 000 000:  NEUTRON POROSITY                       
 NRAT.C/C               00 000 000 000:  DSN (NDSN/FDSN) RATIO                  
 PE  .                  00 000 000 000:  PHOTO-ELECTRIC FACTOR                  
 RHOB.G/CC              00 000 000 000:  BULK DENSITY                           
 SPA .MV                00 000 000 000:  ANALOG SPONTANEOUS POTENTIAL           
 TEMP.DEGF              00 000 000 000:  TEMPERATURE                            
 TENS.LBS               00 000 000 000:  CABLE TENSION                          
 AHVT_1ARM.FT3          00 000 000 000:  ANNULAR VOLUME TOTAL                   
 BHVT_1ARM.FT3          00 000 000 000:  BOREHOLE VOLUME TOTAL                  
 CALI_1ARM.IN           00 000 000 000:  CALIPER                                
 AHVT_4ARM.FT3          00 000 000 000:  ANNULAR VOLUME TOTAL                   
 BHVT_4ARM.FT3          00 000 000 000:  BOREHOLE VOLUME TOTAL                  
 C13 .IN                00 000 000 000:  FOUR ARM CALIPER ARMS 1 & 3            
 C24 .IN                00 000 000 000:  FOUR ARM CALIPER ARMS 2 & 4            
 CALA_4ARM.IN           00 000 000 000:  AVERAGE CALIPER (C1+C2)/2              
~A  DEPT        DFL        DLOD       DPHI       DRHO       FDSN       GR         HDCN       HDRS       HMRS       NDSN       NPHI       NRAT       PE         RHOB       SPA        TEMP       TENS     AHVT_1ARM  BHVT_1ARM  CALI_1ARM  AHVT_4ARM  BHVT_4ARM    C13        C24      CALA_4ARM
# ...
 4171.8333     2.7018  1643.4189     0.1774     0.0303  1173.5780    35.9779   397.0764     2.5184     2.5767 12525.6465     0.4602    10.8890     3.2076     2.3573   171.7120   153.7051  3525.3621   231.9690   458.0863    21.5373   211.8786   440.9241    17.4886    21.7764    19.6325 
 4172.3333     2.7957  1644.1460     0.1603     0.0291  1180.3331    34.1816   396.9010     2.5195     2.6016 12618.3818     0.4613    10.9128     3.2923     2.3855   171.7962   153.6550  3529.4333   231.1919   456.8214    21.5373   211.3260   439.8837    17.6090    21.7805    19.6947 
 4172.8333     3.1531  1646.0831     0.1408     0.0206  1222.6514    31.6235   379.8108     2.6329     2.7529 12756.2891     0.4462    10.6564     3.3563     2.4177   172.0407   153.6130  3529.5962   230.4148   455.5564    21.5373   210.7662   438.8360    17.6769    21.8017    19.7393 
 4173.3333     3.6377  1641.9657     0.1297     0.0142  1259.3671    29.7002   358.3757     2.7904     2.9628 12867.2881     0.4329    10.4243     3.3984     2.4361   172.4672   153.5862  3523.0815   229.6376   454.2915    21.5373   210.2027   437.7848    17.7714    21.7676    19.7695 
 4173.8333     4.0889  1635.9111     0.1222     0.0213  1243.3387    29.9731   340.3684     2.9380     3.1537 12877.9258     0.4421    10.5724     3.4301     2.4483   173.0214   153.5683  3510.5413   228.8605   453.0265    21.5373   209.6349   436.7291    17.7886    21.7646    19.7766 
 4174.3333     4.3463  1629.8567     0.1168     0.0273  1199.8130    31.8203   328.6610     3.0426     3.2658 12785.0137     0.4602    10.8738     3.4659     2.4572   173.2849   153.5411  3497.0234   228.0834   451.7616    21.5373   209.0683   435.6747    17.6913    21.7613    19.7263 
 4174.8333     4.3266  1625.0131     0.1154     0.0262  1172.4401    33.7817   324.0130     3.0863     3.2784 12643.0410     0.4675    10.9967     3.4909     2.4595   173.3936   153.5063  3496.8606   227.3063   450.4966    21.5373   208.5075   434.6260    17.5913    21.7809    19.6861 
 4175.3333     3.9872  1628.4034     0.1261     0.0249  1149.1813    35.3686   328.6056     3.0432     3.1843 12488.3184     0.4729    11.0875     3.4718     2.4420   173.3936   153.4749  3501.9094   226.5291   449.2317    21.5373   207.9529   433.5835    17.4693    21.7601    19.6147 
 4175.8333     3.4651  1630.0991     0.1469     0.0264  1122.7141    37.0062   342.8256     2.9169     3.0135 12364.6719     0.4814    11.2343     3.3994     2.4076   173.0350   153.4664  3506.3064   225.7520   447.9667    21.5373   207.4041   432.5468    17.4564    21.7740    19.6152 
 4176.3333     3.0319  1629.3719     0.1582     0.0333  1113.3152    38.7201   360.9466     2.7705     2.8489 12302.9492     0.4830    11.2699     3.3338     2.3889   172.7361   153.4846  3506.9583   224.9749   446.7018    21.5373   206.8548   431.5097    17.5574    21.7594    19.6584 
 4176.8333     2.7924  1625.7393     0.1575     0.0417  1109.9119    39.3866   375.9475     2.6599     2.7571 12299.9521     0.4847    11.3030     3.3618     2.3902   172.7497   153.5095  3500.6064   224.1977   445.4368    21.5373   206.2987   430.4657    17.6400    21.7854    19.7127 
 4177.3333     2.7530  1619.4424     0.1543     0.0439  1129.2266    38.3963   384.8009     2.5987     2.7437 12342.0527     0.4755    11.1578     3.4592     2.3954   172.6085   153.5524  3501.0950   223.4206   444.1718    21.5373   205.7375   429.4167    17.7304    21.7764    19.7534 
 4177.8333     2.8178  1619.6848     0.1540     0.0410  1165.9016    36.8031   386.4642     2.5876     2.7904 12378.7207     0.4561    10.8424     3.5290     2.3959   173.0132   153.5868  3505.0039   222.6435   442.9069    21.5373   205.1698   428.3611    17.9218    21.7934    19.8576 
 4178.3333     2.9566  1618.9586     0.1535     0.0386  1161.5447    35.2797   378.9786     2.6387     2.8951 12383.4297     0.4588    10.8881     3.4608     2.3968   173.3800   153.6175  3506.3064   221.8663   441.6419    21.5373   204.5891   427.2926    18.1488    21.7869    19.9678 
 4178.8333     3.1797  1617.7467     0.1486     0.0425  1134.1338    33.3881   362.3805     2.7595     3.0619 12378.7324     0.4741    11.1399     3.3016     2.4048   173.6788   153.6290  3502.8862   221.0892   440.3770    21.5373   203.9958   426.2114    18.3182    21.7726    20.0454 
 4179.3333     3.5520  1615.5674     0.1415     0.0487  1130.6614    31.8393   341.0078     2.9325     3.2852 12392.1416     0.4771    11.1843     3.1714     2.4166   173.8418   153.6204  3495.5576   220.3121   439.1120    21.5373   203.3947   425.1225    18.3870    21.7712    20.0791 
 4179.8333     4.0718  1616.5359     0.1364     0.0475  1148.4204    31.6616   318.8980     3.1358     3.5554 12441.9971     0.4701    11.0616     3.2003     2.4250   174.2330   153.6153  3488.0659   219.5350   437.8471    21.5373   202.7905   424.0305    18.3687    21.7900    20.0793 
 4180.3333     4.6855  1619.6848     0.1316     0.0388  1188.4484    31.7060   297.8723     3.3571     3.8465 12507.8604     0.4518    10.7507     3.3273     2.4328   174.8768   153.6176  3491.3232   218.7578   436.5821    21.5373   202.1876   422.9396    18.3273    21.7947    20.0610 
 4180.8333     5.1381  1628.4034     0.1291     0.0255  1246.8746    30.4365   281.8350     3.5482     4.0707 12561.0781     0.4255    10.2912     3.4638     2.4370   175.6755   153.6432  3505.1667   217.9807   435.3172    21.5373   201.5863   421.8505    18.2843    21.7918    20.0381 
 4181.3333     5.1631  1639.7863     0.1301     0.0184  1284.8180    30.6206   277.0751     3.6091     4.0947 12588.7441     0.4090     9.9980     3.5239     2.4353   176.5095   153.6672  3525.8506   217.2036   434.0522    21.5373   200.9887   420.7651    18.2340    21.7638    19.9989 
 4181.8333     4.8047  1646.5679     0.1281     0.0202  1261.7927    32.9692   286.8680     3.4859     3.9004 12571.6611     0.4192    10.1726     3.5390     2.4386   177.1533   153.7040  3543.6025   216.4264   432.7873    21.5373   200.3959   419.6844    18.1015    21.7651    19.9333 
 4182.3333     4.3203  1651.1691     0.1173     0.0312  1214.8367    35.0766   308.2819     3.2438     3.6226 12512.6221     0.4390    10.5154     3.5206     2.4565   177.7374   153.7435  3546.0457   215.6493   431.5223    21.5373   199.8102   418.6109    18.0442    21.7811    19.9127 
 4182.8333     3.8989  1647.7787     0.1051     0.0360  1191.3738    34.2577   334.5059     2.9895     3.3660 12439.4521     0.4474    10.6583     3.4935     2.4766   178.0335   153.8033  3538.5537   214.8722   430.2574    21.5373   199.2274   417.5402    17.9692    21.7805    19.8748 
 4183.3333     3.6052  1644.1460     0.1015     0.0288  1157.1143    32.9565   357.2825     2.7989     3.1681 12365.0088     0.4631    10.9183     3.4542     2.4826   178.1394   153.8856  3533.0164   214.0950   428.9924    21.5373   198.6476   416.4725    17.9742    21.7924    19.8833 
 4183.8333     3.4703  1644.6298     0.1134     0.0086  1100.5698    33.0581   369.2478     2.7082     3.0657 12312.0078     0.4952    11.4280     3.4475     2.4629   177.9981   153.9691  3526.5017   213.3179   427.7274    21.5373   198.0678   415.4048    17.9419    21.7882    19.8650 
 4184.3333     3.5091  1642.2080     0.1278    -0.0101  1066.5660    34.2260   368.3334     2.7149     3.0655 12291.0020     0.5168    11.7580     3.4398     2.4392   177.6884   154.0382  3524.5474   212.5408   426.4625    21.5373   197.4899   414.3391    17.9373    21.7551    19.8462 
 4184.8333     3.6942  1640.5134     0.1309    -0.0124  1063.1211    34.3276   360.4117     2.7746     3.1167 12287.6670     0.5190    11.7881     3.4273     2.4339   177.3217   154.0717  3521.9419   211.7637   425.1975    21.5373   196.9142   413.2756    17.8986    21.7370    19.8178 
 4185.3333     3.8833  1638.5753     0.1275    -0.0068  1057.1467    34.4736   354.4922     2.8209     3.1490 12292.5078     0.5239    11.8581     3.3982     2.4396   177.2755   154.0705  3520.8018   210.9865   423.9326    21.5373   196.3412   412.2147    17.8617    21.7562    19.8090 
