~Version Information
 VERS.                  2.0:   CWLS log ASCII Standard -VERSION 2.0
 WRAP.                   NO:   One line per depth step
~Well Information Block
#MNEM.UNIT       Data Type    Information
#---------     -----------    ---------------------------
 STRT.F              1021.8333:
 STOP.F              4406.3335:
 STEP.F                 0.5000:
 NULL.               -999.2500:
 APD .                   31.0':  ABOVE PERMANENT DATUM
 UWI .           36-017-900042:  API WELLHOLE NUMBER
 BHT .                   162 F:  BOTTOMHOLE TEMPERATURE
 BLI .                   4387':  BOTTOM LOGGED INTERVAL
 BS  .                 17.500":  BIT SIZE
 CBD .                   1108':  CASING BOTTOM DRILLER
 CBL .                   1108':  CASING BOTTOM LOGGER
 COMP.    NORTHWEST GEOTHERMAL:  COMPANY NAME
 COUN.               DESCHUTES:  COUNTY
 CS  .                 20.000":  CASING DIAMETER
 DATE.             JUN-04-2008:  LOGGING DATE
 DFD .                    10.4:  DRILLING FLUID DENSITY
 DFL .                    10.4:  DRILLING FLUID LOSS
 DFPH.                     8.0:  DRILLING FLUID PH
 DFT .                    LSND:  DRILLING FLUID TYPE
 DFV .                    52.0:  DRILLING FLUID VISCOSITY
 DMF .                    K.B.:  DRILLING MEASURED
 EDF .               ---------:  ELEVATION OF DRILLING FLOOR
 EDIA.                  5.500":  EQUIP. DATA-DENSITY-DIAMETER
 EDOD.                 SDLT-DA:  EQUIP. DATA-DENSITY-MODEL NO.
 EDS1.                   10.0':  EQUIP. DATA-GAMMA-DISTANCE TO SOURCE
 EDSN.                 2694 GW:  EQUIP. DATA-DENSITY-SOURCE SERIAL NO.
 EDT .                     432:  EQUIP. DATA-GAMMA-DETECTOR MODEL NO.
 EDTR.                  1.5 CI:  EQUIP. DATA-DENSITY-STRENGTH
 EDUN.                     ONE:  EQUIP. DATA-DENSITY-RUN NO.
 EFWD.                      NO:  EQUIP. DATA-ACOUSTIC-FWDA
 EGL .                --------:  ELEVATION OF GROUND LEVEL
 EGMD.                    NGRT:  EQUIP. DATA-GAMMA-MODEL NO.
 EGRN.                     ONE:  EQUIP. DATA-GAMMA-RUN NO.
 EGSN.                   A-175:  EQUIP. DATA-GAMMA-SERIAL NO.
 EKB .                --------:  ELEVATION OF KELLY BUSHING
 ELGT.                 GAM-GAM:  EQUIP. DATA-DENSITY-LOG TYPE
 ELN1.                   4.00":  EQUIP. DATA-GAMMA-LENGTH
 EMIA.                  3.625":  EQUIP. DATA-GAMMA-DIAMETER
 ENER.                I714M741:  EQUIP. DATA-DENSITY-SERIAL NO.
 ENGI.             G. ROUSSEAU:  ENGINEER 1 NAME
 ENGT.                 NEU-NEU:  EQUIP. DATA-NEUTRON-LOG TYPE
 ENIA.                  3.625":  EQUIP. DATA-NEUTRON-DIAMETER
 ENOD.                  DSNT-X:  EQUIP. DATA-NEUTRON-MODEL NO.
 EPD .               ---------:  ELEVATATION OF PERMANENT DATUM
 EQLA.                      NO:  EQUIP. DATA-ACOUSTIC-LSA
 ESAT.                  CS-137:  EQUIP. DATA-DENSITY-SOURCE TYPE
 ESER.                      05:  EQUIP. DATA-NEUTRON-SERIAL NO.
 ESRT.                 AM241BE:  EQUIP. DATA-NEUTRON-SOURCE TYPE
 ESSN.                 DSN-307:  EQUIP. DATA-NEUTRON-SOURCE SERIAL NO.
 ESTR.                 15.0 CI:  EQUIP. DATA-NEUTRON-STRENGTH
 ETP1.                  SCINT.:  EQUIP. DATA-GAMMA-TYPE
 EURN.                     ONE:  EQUIP. DATA-NEUTRON-RUN NO.
 FL1 .             LAT: 43.333:  FIELD LOCATION LINE 1
 FL2 .          LONG: 121.1856:  FIELD LOCATION LINE 2
 FLD .    NEWBERRY KGRA (CASCADE RANGE):  FIELD NAME
 HDRT.                   OPENH:  HEADER TYPE
 LCL1.                       0:  LOGGING DATA-GAMMA-SCALE L 1
 LCL2.                     API:  LOGGING DATA-GAMMA-SCALE L 2
 LCR1.                     150:  LOGGING DATA-GAMMA-SCALE R 1
 LCR2.                     API:  LOGGING DATA-GAMMA-SCALE R 2
 LDL1.                    1.65:  LOGGING DATA-DENSITY-SCALE L 1
 LDL2.                    GMCC:  LOGGING DATA-DENSITY-SCALE L 2
 LDR1.                    2.65:  LOGGING DATA-DENSITY-SCALE R 1
 LDR2.                    GMCC:  LOGGING DATA-DENSITY-SCALE R 2
 LDX1.                    2.65:  LOGGING DATA-DENSITY-MATRIX 1
 LDX2.                    GMCC:  LOGGING DATA-DENSITY-MATRIX 2
 LFR1.                   4396':  LOGGING DATA-GENERAL-DEPTH FROM 1
 LMF .                    K.B.:  LOG MEASURED FROM
 LMX1.                    SAND:  LOGGING DATA-NEUTRON-MATRIX 1
 LRU1.                     ONE:  LOGGING DATA-GENERAL-RUN NO. 1
 LSL1.                     .60:  LOGGING DATA-NEUTRON-SCALE L 1
 LSL2.                       %:  LOGGING DATA-NEUTRON-SCALE L 2
 LSP1.                      60:  LOGGING DATA-GENERAL-SPEED 1
 LSR1.                       0:  LOGGING DATA-NEUTRON-SCALE R 1
 LSR2.                       %:  LOGGING DATA-NEUTRON-SCALE R 2
 LTO1.                   1108':  LOGGING DATA-GENERAL-DEPTH TO 1
 LUL .                    WDLD:  LOGGING UNIT LOCATION
 LUN .                   49599:  LOGGING UNIT NUMBER
 MCSS.                    MEAS:  MUD CAKE SAMPLE SOURCE
 MCST.                    40 F:  MUDCAKE SAMPLE TEMPERATURE
 MFSS.                    MEAS:  MUD FILTRATE SAMPLE SOURCE
 MFST.                    45 F:  MUD FILTRATE SAMPLE TEMPERATURE
 MRT .                   162 F:  MAXIMUM RECORDED TEMPERATURE
 MSS .                FLOWLINE:  SOURCE OF MUD SAMPLE
 MST .                    51 F:  MUD SAMPLE TEMPERATURE
 OS1 .                    NGRT:  OTHER SERVICES LINE 1
 OS2 .                    FIAC:  OTHER SERVICES LINE 2
 OS3 .                    HRTT:  OTHER SERVICES LINE 3
 OTH1.                      NA:  RES. EQUIP DATA: OTHER 1 (OH)
 PDAT.                    G.L.:  PERMANENT DATUM
 PGMV.                 XL v5.8:  PROGRAM VERSION
 PT1 .                      NA:  RES. EQUIP DATA: PAD TYPE 1 (OH)
 R1  .    ANNULAR HOLE VOLUME CALCULATED USING 13.375" CASING.:  REMARKS LINE 1
 R10 .    CREW: M. EMERSON, A, CARRASCO.                              RIG: NABORS NO. 633.:  REMARKS LINE 10
 R2  .    HRID-SDLT-DSNT-NGRT-FIAC-HRTT-RWCH RUN IN COMBINATION.:  REMARKS LINE 2
 R3  .    MAX. READ THERMOMETERS: 162F, AND 162 F.:  REMARKS LINE 3
 R4  .    MAX. READ FROM TEMP TOOL. 163.5 F @ 3981'.:  REMARKS LINE 4
 RANG.                     12E:  RANGE
 RMB .                   1.883:  RESISTIVITY OF MUD - BHT
 RMCS.                   5.720:  RESISTIVITY OF MUDCAKE SAMPLE
 RMFS.                   5.140:  RESISTIVITY OF MUD FILTRATE SAMPLE
 RMS .                   5.500:  RESISTIVITY OF MUD SAMPLE
 RRN1.                     ONE:  RES. EQUIP DATA: RUN NO 1 (OH)
 RUN .                     ONE:  RUN NUMBER 1
 SECT.                      29:  SECTION
 SON .                 5932371:  SERVICE/TICKET ORDER NUMBER
 PROV.                      OR:  STATE
 TCS .              1400 06-04:  TIME CIRCULATION STOPPED
 TDD .                   4409':  DRILLERS DEPTH
 TDL .                   4396':  LOGGERS DEPTH
 TLAB.              0050 06-05:  TIME LOGGING ON BOTTOM
 TLI .                   1108':  TOP LOGGED INTERVAL
 TN1 .           HRIT #211_132:  RES. EQUIP DATA: TOOL TYPE & NO. 1 (OH)
 TOWN.                     21S:  TOWNSHIP
 TPS1.                1.50" SO:  RES. EQUIP DATA: TOOL POS. 1 (OH)
 TITLE1.    HIGH RES. INDUCTION:  HEADER TITLE LINE 1
 TITLE2.      SPECTRAL DENSITY:  HEADER TITLE LINE 2
 TITLE3.    DUAL SPACED NEUTRON:  HEADER TITLE LINE 3
 TITLE4.               5"=100':  HEADER TITLE LINE 4
 WITN.              R. BALDWIN:  WITNESS 1 NAME
 WELL.               NWG 55-29:  WELL NAME
 XTP .                      TD:  MAX. REC TEMP. @ 1 (OPEN HOLE)
~Parameter Information Block
#MNEM.UNIT       Value        Description
#---------     -----------    ---------------------------
~Curve Information Block
#MNEM.UNIT                 API CODE     Curve Description
#---------               -----------    ---------------------------
 DEPT.F                 00 000 000 000:  
 DFL .OHMM              00 000 000 000:  DIGITALLY FOCUSED LATEROLOG            
 DLOD.LB                00 000 000 000:  CABLE HEAD TENSION                     
 DPHI.DECP              00 000 000 000:  DENSITY POROSITY                       
 DRHO.G/CC              00 000 000 000:  DENSITY CORRECTION                     
 FDSN.CPS               00 000 000 000:  DSN FAR COUNTS                         
 GR  .GAPI              00 000 000 000:  NATURAL GAMMA                          
 HDCN.MMHO              00 000 000 000:  HRI DEEP CONDUCTIVITY                  
 HDRS.OHMM              00 000 000 000:  HRI DEEP RESISTIVITY                   
 HMRS.OHMM              00 000 000 000:  HRI MEDIUM RESISTIVITY                 
 NDSN.CPS               00 000 000 000:  DSN NEAR COUNTS                        
 NPHI.DECP              00 000 000 000:  NEUTRON POROSITY                       
 NRAT.C/C               00 000 000 000:  DSN (NDSN/FDSN) RATIO                  
 PE  .                  00 000 000 000:  PHOTO-ELECTRIC FACTOR                  
 RHOB.G/CC              00 000 000 000:  BULK DENSITY                           
 SPA .MV                00 000 000 000:  ANALOG SPONTANEOUS POTENTIAL           
 TEMP.DEGF              00 000 000 000:  TEMPERATURE                            
 TENS.LBS               00 000 000 000:  CABLE TENSION                          
 AHVT_1ARM.FT3          00 000 000 000:  ANNULAR VOLUME TOTAL                   
 BHVT_1ARM.FT3          00 000 000 000:  BOREHOLE VOLUME TOTAL                  
 CALI_1ARM.IN           00 000 000 000:  CALIPER                                
 AHVT_4ARM.FT3          00 000 000 000:  ANNULAR VOLUME TOTAL                   
 BHVT_4ARM.FT3          00 000 000 000:  BOREHOLE VOLUME TOTAL                  
 C13 .IN                00 000 000 000:  FOUR ARM CALIPER ARMS 1 & 3            
 C24 .IN                00 000 000 000:  FOUR ARM CALIPER ARMS 2 & 4            
 CALA_4ARM.IN           00 000 000 000:  AVERAGE CALIPER (C1+C2)/2              
~A  DEPT        DFL        DLOD       DPHI       DRHO       FDSN       GR         HDCN       HDRS       HMRS       NDSN       NPHI       NRAT       PE         RHOB       SPA        TEMP       TENS     AHVT_1ARM  BHVT_1ARM  CALI_1ARM  AHVT_4ARM  BHVT_4ARM    C13        C24      CALA_4ARM
 1021.8333  -999.2500  -999.2500  -999.2500  -999.2500  -999.2500  -999.2500  -999.2500  -999.2500  -999.2500  -999.2500  -999.2500  -999.2500  -999.2500  -999.2500  -999.2500  -999.2500  -999.2500  -999.2500  -999.2500  -999.2500  -999.2500  -999.2500  -999.2500  -999.2500  -999.2500 
 1022.3333     0.1925  1519.6613     2.2530    -3.9886   834.4589    16.3957     0.0500 20000.0000 20000.0000 11027.5938     0.6544    13.4821    11.4997    -1.0675   220.5342   115.4271  2137.4316  3905.8093  7204.8999    19.1364  -999.2500  -999.2500  -999.2500  -999.2500  -999.2500 
 1022.8333     0.1932  1519.4188     2.1358    -3.8228   855.8079    16.9099     0.0500 20000.0000 20000.0000 11065.5967     0.6382    13.2305    10.9945    -0.8741   220.3386   115.4340  2142.9690  3905.2986  7203.9009    19.1390  -999.2500  -999.2500  -999.2500  -999.2500  -999.2500 
 1023.3333     0.1932  1517.4808     2.1412    -3.8736   886.4148    17.5637     0.0500 20000.0000 20000.0000 11104.3613     0.6012    12.8261    11.0495    -0.8829   220.2625   115.4371  2147.6921  3904.7888  7202.9033    19.1071  -999.2500  -999.2500  -999.2500  -999.2500  -999.2500 
 1023.8333     0.1927  1519.1765     2.2459    -4.0966   874.8278    17.4050     0.0500 20000.0000 20000.0000 11102.6426     0.6082    12.9740    11.6687    -1.0557   220.2788   115.4439  2148.9949  3904.2805  7201.9072    19.1417  -999.2500  -999.2500  -999.2500  -999.2500  -999.2500 
 1024.3333     0.1922  1515.7861     2.3540    -4.3171   833.9943    16.9099     0.0500 20000.0000 20000.0000 11079.9756     0.6742    13.5820    12.3477    -1.2341   220.2598   115.4499  2145.0862  3903.7690  7200.9077    19.1576  -999.2500  -999.2500  -999.2500  -999.2500  -999.2500 
 1024.8333     0.1930  1514.0905     2.3700    -4.3648   795.0999    16.8210     0.0500 20000.0000 20000.0000 11075.5244     0.7612    14.2367    12.4795    -1.2606   220.2354   115.4598  2147.3662  3903.2566  7199.9072    19.1523  -999.2500  -999.2500  -999.2500  -999.2500  -999.2500 
 1025.3333     0.1948  1512.6372     2.2907    -4.2321   786.7603    18.1667     0.0500 20000.0000 20000.0000 11088.8457     0.7786    14.3836    11.9643    -1.1296   220.3495   115.4674  2143.4575  3902.7449  7198.9082    19.1231  -999.2500  -999.2500  -999.2500  -999.2500  -999.2500 
 1025.8333     0.1965  1516.0276     2.1774    -4.0214   808.3055    18.7443     0.0500 20000.0000 20000.0000 11102.0010     0.7243    14.0150    11.2532    -0.9427   220.3332   115.4736  2142.1545  3902.2354  7197.9106    19.1364  -999.2500  -999.2500  -999.2500  -999.2500  -999.2500 
 1026.3333     0.1984  1515.0591     2.1580    -3.9426   816.3513    18.2683     0.0500 20000.0000 20000.0000 11116.6406     0.7063    13.8920    11.2105    -0.9107   220.3440   115.4790  2139.0603  3901.7244  7196.9116    19.1390  -999.2500  -999.2500  -999.2500  -999.2500  -999.2500 
 1026.8333     0.2009  1513.8481     2.2953    -4.1020   814.0239    15.9387     0.0500 20000.0000 20000.0000 11128.1631     0.7138    13.9456    12.0095    -1.1373   220.3522   115.4797  2137.2688  3901.2122  7195.9116    19.1630  -999.2500  -999.2500  -999.2500  -999.2500  -999.2500 
 1027.3333     0.2035  1514.8167     2.4539    -4.3024   820.2955    15.4309     0.0500 20000.0000 20000.0000 11129.6904     0.6987    13.8399    13.0973    -1.3989   220.2055   115.4866  2139.2231  3900.6990  7194.9111    19.1523  -999.2500  -999.2500  -999.2500  -999.2500  -999.2500 
 1027.8333     0.2061  1517.9656     2.5209    -4.3745   830.5164    15.9387     0.0500 20000.0000 20000.0000 11126.6543     0.6801    13.6763    13.7027    -1.5094   220.1267   115.4859  2141.8289  3900.1870  7193.9116    19.1337  -999.2500  -999.2500  -999.2500  -999.2500  -999.2500 
 1028.3333     0.2075  1519.9026     2.5208    -4.3753   836.7665    17.2526     0.0500 20000.0000 20000.0000 11134.4043     0.6737    13.5938    13.8111    -1.5094   220.2571   115.4920  2145.7378  3899.6768  7192.9136    19.1284  -999.2500  -999.2500  -999.2500  -999.2500  -999.2500 
 1028.8333     0.2072  1517.2394     2.5246    -4.4119   834.2662    18.3000     0.0500 20000.0000 20000.0000 11145.7354     0.6785    13.6433    13.7292    -1.5156   220.3603   115.4951  2152.0894  3899.1670  7191.9155    19.1124  -999.2500  -999.2500  -999.2500  -999.2500  -999.2500 
 1029.3333     0.2060  1513.8481     2.5385    -4.4698   844.4719    17.5192     0.0500 20000.0000 20000.0000 11140.2354     0.6573    13.4707    13.6502    -1.5385   220.5858   115.4937  2155.1838  3898.6582  7190.9189    19.1550  -999.2500  -999.2500  -999.2500  -999.2500  -999.2500 
 1029.8333     0.2063  1514.8167     2.5049    -4.4257   861.0179    16.1291     0.0500 20000.0000 20000.0000 11102.8047     0.6206    13.1605    13.2873    -1.4831   220.7841   115.4960  2158.2781  3898.1453  7189.9180    19.1683  -999.2500  -999.2500  -999.2500  -999.2500  -999.2500 
 1030.3333     0.2074  1517.2394     2.4241    -4.2860   842.1492    14.7581     0.0500 20000.0000 20000.0000 11052.0488     0.6552    13.4192    12.8217    -1.3498   220.8765   115.5053  2160.5583  3897.6311  7188.9160    19.1470  -999.2500  -999.2500  -999.2500  -999.2500  -999.2500 
 1030.8333     0.2088  1521.8406     2.3690    -4.2012   811.1182    14.4216     0.0500 20000.0000 20000.0000 11041.1846     0.7234    13.9338    12.4805    -1.2588   220.9498   115.5022  2165.2812  3897.1206  7187.9175    19.1124  -999.2500  -999.2500  -999.2500  -999.2500  -999.2500 
 1031.3333     0.2104  1525.2310     2.3983    -4.2659   811.6927    15.3166     0.0500 20000.0000 20000.0000 11063.6191     0.7194    13.9375    12.5425    -1.3072   220.8520   115.5076  2171.4702  3896.6121  7186.9214    19.1257  -999.2500  -999.2500  -999.2500  -999.2500  -999.2500 
 1031.8333     0.2113  1524.2625     2.4295    -4.3152   818.7994    16.3259     0.0500 20000.0000 20000.0000 11085.4268     0.6984    13.8208    12.5545    -1.3587   220.5695   115.5100  2176.1934  3896.1018  7185.9233    19.1284  -999.2500  -999.2500  -999.2500  -999.2500  -999.2500 
 1032.3333     0.2122  1522.8092     2.3775    -4.2156   809.1724    17.1765     0.0500 20000.0000 20000.0000 11113.0156     0.7234    14.0111    12.2313    -1.2729   220.3522   115.5101  2176.5190  3895.5920  7184.9253    19.1257  -999.2500  -999.2500  -999.2500  -999.2500  -999.2500 
 1032.8333     0.2127  1524.7472     2.2700    -4.0400   807.6857    17.1955     0.0500 20000.0000 20000.0000 11140.6162     0.7305    14.0676    11.6384    -1.0955   220.0343   115.5140  2175.7048  3895.0828  7183.9287    19.1178  -999.2500  -999.2500  -999.2500  -999.2500  -999.2500 
 1033.3333     0.2130  1527.6527     2.1794    -3.9134   828.8450    17.0622     0.0500 20000.0000 20000.0000 11145.1504     0.6866    13.7232    11.0554    -0.9459   219.8333   115.5193  2170.4929  3894.5735  7182.9316    19.1311  -999.2500  -999.2500  -999.2500  -999.2500  -999.2500 
 1033.8333     0.2129  1529.1060     2.1187    -3.8274   849.0356    15.9006     0.0500 20000.0000 20000.0000 11122.5039     0.6465    13.3762    10.6659    -0.8459   219.8795   115.5192  2168.3757  3894.0620  7181.9321    19.1523  -999.2500  -999.2500  -999.2500  -999.2500  -999.2500 
 1034.3333     0.2137  1529.1060     2.0275    -3.6922   835.1382    15.1516     0.0500 20000.0000 20000.0000 11087.6260     0.6730    13.5717    10.2719    -0.6954   219.9311   115.5123  2166.0957  3893.5498  7180.9326    19.1576  -999.2500  -999.2500  -999.2500  -999.2500  -999.2500 
 1034.8333     0.2147  1527.1689     1.8905    -3.5155   826.0667    15.4753     0.0500 20000.0000 20000.0000 11059.1699     0.6912    13.6941     9.8580    -0.4693   219.8958   115.5069  2165.2812  3893.0364  7179.9312    19.1523  -999.2500  -999.2500  -999.2500  -999.2500  -999.2500 
 1035.3333     0.2158  1523.2939     1.7509    -3.3711   843.2819    18.1096     0.0500 20000.0000 20000.0000 11051.8984     0.6573    13.4052     9.4439    -0.2389   219.9121   115.5099  2168.3757  3892.5242  7178.9312    19.1550  -999.2500  -999.2500  -999.2500  -999.2500  -999.2500 
