~Version Information
 VERS.                  2.0:   CWLS log ASCII Standard -VERSION 2.0
 WRAP.                   NO:   One line per depth step
~Well Information Block
#MNEM.UNIT       Data Type    Information
#---------     -----------    ---------------------------
 STRT.F              1021.8333:
 STOP.F              4406.3335:
 STEP.F                 0.5000:
 NULL.               -999.2500:
 APD .                   31.0':  ABOVE PERMANENT DATUM
 UWI .           36-017-900042:  API WELLHOLE NUMBER
 BHT .                   162 F:  BOTTOMHOLE TEMPERATURE
 BLI .                   4387':  BOTTOM LOGGED INTERVAL
 BS  .                 17.500":  BIT SIZE
 CBD .                   1108':  CASING BOTTOM DRILLER
 CBL .                   1108':  CASING BOTTOM LOGGER
 COMP.    NORTHWEST GEOTHERMAL:  COMPANY NAME
 COUN.               DESCHUTES:  COUNTY
 CS  .                 20.000":  CASING DIAMETER
 DATE.             JUN-04-2008:  LOGGING DATE
 DFD .                    10.4:  DRILLING FLUID DENSITY
 DFL .                    10.4:  DRILLING FLUID LOSS
 DFPH.                     8.0:  DRILLING FLUID PH
 DFT .                    LSND:  DRILLING FLUID TYPE
 DFV .                    52.0:  DRILLING FLUID VISCOSITY
 DMF .                    K.B.:  DRILLING MEASURED
 EDF .               ---------:  ELEVATION OF DRILLING FLOOR
 EDIA.                  5.500":  EQUIP. DATA-DENSITY-DIAMETER
 EDOD.                 SDLT-DA:  EQUIP. DATA-DENSITY-MODEL NO.
 EDS1.                   10.0':  EQUIP. DATA-GAMMA-DISTANCE TO SOURCE
 EDSN.                 2694 GW:  EQUIP. DATA-DENSITY-SOURCE SERIAL NO.
 EDT .                     432:  EQUIP. DATA-GAMMA-DETECTOR MODEL NO.
 EDTR.                  1.5 CI:  EQUIP. DATA-DENSITY-STRENGTH
 EDUN.                     ONE:  EQUIP. DATA-DENSITY-RUN NO.
 EFWD.                      NO:  EQUIP. DATA-ACOUSTIC-FWDA
 EGL .                --------:  ELEVATION OF GROUND LEVEL
 EGMD.                    NGRT:  EQUIP. DATA-GAMMA-MODEL NO.
 EGRN.                     ONE:  EQUIP. DATA-GAMMA-RUN NO.
 EGSN.                   A-175:  EQUIP. DATA-GAMMA-SERIAL NO.
 EKB .                --------:  ELEVATION OF KELLY BUSHING
 ELGT.                 GAM-GAM:  EQUIP. DATA-DENSITY-LOG TYPE
 ELN1.                   4.00":  EQUIP. DATA-GAMMA-LENGTH
 EMIA.                  3.625":  EQUIP. DATA-GAMMA-DIAMETER
 ENER.                I714M741:  EQUIP. DATA-DENSITY-SERIAL NO.
 ENGI.             G. ROUSSEAU:  ENGINEER 1 NAME
 ENGT.                 NEU-NEU:  EQUIP. DATA-NEUTRON-LOG TYPE
 ENIA.                  3.625":  EQUIP. DATA-NEUTRON-DIAMETER
 ENOD.                  DSNT-X:  EQUIP. DATA-NEUTRON-MODEL NO.
 EPD .               ---------:  ELEVATATION OF PERMANENT DATUM
 EQLA.                      NO:  EQUIP. DATA-ACOUSTIC-LSA
 ESAT.                  CS-137:  EQUIP. DATA-DENSITY-SOURCE TYPE
 ESER.                      05:  EQUIP. DATA-NEUTRON-SERIAL NO.
 ESRT.                 AM241BE:  EQUIP. DATA-NEUTRON-SOURCE TYPE
 ESSN.                 DSN-307:  EQUIP. DATA-NEUTRON-SOURCE SERIAL NO.
 ESTR.                 15.0 CI:  EQUIP. DATA-NEUTRON-STRENGTH
 ETP1.                  SCINT.:  EQUIP. DATA-GAMMA-TYPE
 EURN.                     ONE:  EQUIP. DATA-NEUTRON-RUN NO.
 FL1 .             LAT: 43.333:  FIELD LOCATION LINE 1
 FL2 .          LONG: 121.1856:  FIELD LOCATION LINE 2
 FLD .    NEWBERRY KGRA (CASCADE RANGE):  FIELD NAME
 HDRT.                   OPENH:  HEADER TYPE
 LCL1.                       0:  LOGGING DATA-GAMMA-SCALE L 1
 LCL2.                     API:  LOGGING DATA-GAMMA-SCALE L 2
 LCR1.                     150:  LOGGING DATA-GAMMA-SCALE R 1
 LCR2.                     API:  LOGGING DATA-GAMMA-SCALE R 2
 LDL1.                    1.65:  LOGGING DATA-DENSITY-SCALE L 1
 LDL2.                    GMCC:  LOGGING DATA-DENSITY-SCALE L 2
 LDR1.                    2.65:  LOGGING DATA-DENSITY-SCALE R 1
 LDR2.                    GMCC:  LOGGING DATA-DENSITY-SCALE R 2
 LDX1.                    2.65:  LOGGING DATA-DENSITY-MATRIX 1
 LDX2.                    GMCC:  LOGGING DATA-DENSITY-MATRIX 2
 LFR1.                   4396':  LOGGING DATA-GENERAL-DEPTH FROM 1
 LMF .                    K.B.:  LOG MEASURED FROM
 LMX1.                    SAND:  LOGGING DATA-NEUTRON-MATRIX 1
 LRU1.                     ONE:  LOGGING DATA-GENERAL-RUN NO. 1
 LSL1.                     .60:  LOGGING DATA-NEUTRON-SCALE L 1
 LSL2.                       %:  LOGGING DATA-NEUTRON-SCALE L 2
 LSP1.                      60:  LOGGING DATA-GENERAL-SPEED 1
 LSR1.                       0:  LOGGING DATA-NEUTRON-SCALE R 1
 LSR2.                       %:  LOGGING DATA-NEUTRON-SCALE R 2
 LTO1.                   1108':  LOGGING DATA-GENERAL-DEPTH TO 1
 LUL .                    WDLD:  LOGGING UNIT LOCATION
 LUN .                   49599:  LOGGING UNIT NUMBER
 MCSS.                    MEAS:  MUD CAKE SAMPLE SOURCE
 MCST.                    40 F:  MUDCAKE SAMPLE TEMPERATURE
 MFSS.                    MEAS:  MUD FILTRATE SAMPLE SOURCE
 MFST.                    45 F:  MUD FILTRATE SAMPLE TEMPERATURE
 MRT .                   162 F:  MAXIMUM RECORDED TEMPERATURE
 MSS .                FLOWLINE:  SOURCE OF MUD SAMPLE
 MST .                    51 F:  MUD SAMPLE TEMPERATURE
 OS1 .                    NGRT:  OTHER SERVICES LINE 1
 OS2 .                    FIAC:  OTHER SERVICES LINE 2
 OS3 .                    HRTT:  OTHER SERVICES LINE 3
 OTH1.                      NA:  RES. EQUIP DATA: OTHER 1 (OH)
 PDAT.                    G.L.:  PERMANENT DATUM
 PGMV.                 XL v5.8:  PROGRAM VERSION
 PT1 .                      NA:  RES. EQUIP DATA: PAD TYPE 1 (OH)
 R1  .    ANNULAR HOLE VOLUME CALCULATED USING 13.375" CASING.:  REMARKS LINE 1
 R10 .    CREW: M. EMERSON, A, CARRASCO.                              RIG: NABORS NO. 633.:  REMARKS LINE 10
 R2  .    HRID-SDLT-DSNT-NGRT-FIAC-HRTT-RWCH RUN IN COMBINATION.:  REMARKS LINE 2
 R3  .    MAX. READ THERMOMETERS: 162F, AND 162 F.:  REMARKS LINE 3
 R4  .    MAX. READ FROM TEMP TOOL. 163.5 F @ 3981'.:  REMARKS LINE 4
 RANG.                     12E:  RANGE
 RMB .                   1.883:  RESISTIVITY OF MUD - BHT
 RMCS.                   5.720:  RESISTIVITY OF MUDCAKE SAMPLE
 RMFS.                   5.140:  RESISTIVITY OF MUD FILTRATE SAMPLE
 RMS .                   5.500:  RESISTIVITY OF MUD SAMPLE
 RRN1.                     ONE:  RES. EQUIP DATA: RUN NO 1 (OH)
 RUN .                     ONE:  RUN NUMBER 1
 SECT.                      29:  SECTION
 SON .                 5932371:  SERVICE/TICKET ORDER NUMBER
 PROV.                      OR:  STATE
 TCS .              1400 06-04:  TIME CIRCULATION STOPPED
 TDD .                   4409':  DRILLERS DEPTH
 TDL .                   4396':  LOGGERS DEPTH
 TLAB.              0050 06-05:  TIME LOGGING ON BOTTOM
 TLI .                   1108':  TOP LOGGED INTERVAL
 TN1 .           HRIT #211_132:  RES. EQUIP DATA: TOOL TYPE & NO. 1 (OH)
 TOWN.                     21S:  TOWNSHIP
 TPS1.                1.50" SO:  RES. EQUIP DATA: TOOL POS. 1 (OH)
 TITLE1.    HIGH RES. INDUCTION:  HEADER TITLE LINE 1
 TITLE2.      SPECTRAL DENSITY:  HEADER TITLE LINE 2
 TITLE3.    DUAL SPACED NEUTRON:  HEADER TITLE LINE 3
 TITLE4.               5"=100':  HEADER TITLE LINE 4
 WITN.              R. BALDWIN:  WITNESS 1 NAME
 WELL.               NWG 55-29:  WELL NAME
 XTP .                      TD:  MAX. REC TEMP. @ 1 (OPEN HOLE)
~Parameter Information Block
#MNEM.UNIT       Value        Description
#---------     -----------    ---------------------------
~Curve Information Block
#MNEM.UNIT                 API CODE     Curve Description
#---------               -----------    ---------------------------
 DEPT.F                 00 000 000 000:  
 DFL .OHMM              00 000 000 000:  DIGITALLY FOCUSED LATEROLOG            
 DLOD.LB                00 000 000 000:  CABLE HEAD TENSION                     
 DPHI.DECP              00 000 000 000:  DENSITY POROSITY                       
 DRHO.G/CC              00 000 000 000:  DENSITY CORRECTION                     
 FDSN.CPS               00 000 000 000:  DSN FAR COUNTS                         
 GR  .GAPI              00 000 000 000:  NATURAL GAMMA                          
 HDCN.MMHO              00 000 000 000:  HRI DEEP CONDUCTIVITY                  
 HDRS.OHMM              00 000 000 000:  HRI DEEP RESISTIVITY                   
 HMRS.OHMM              00 000 000 000:  HRI MEDIUM RESISTIVITY                 
 NDSN.CPS               00 000 000 000:  DSN NEAR COUNTS                        
 NPHI.DECP              00 000 000 000:  NEUTRON POROSITY                       
 NRAT.C/C               00 000 000 000:  DSN (NDSN/FDSN) RATIO                  
 PE  .                  00 000 000 000:  PHOTO-ELECTRIC FACTOR                  
 RHOB.G/CC              00 000 000 000:  BULK DENSITY                           
 SPA .MV                00 000 000 000:  ANALOG SPONTANEOUS POTENTIAL           
 TEMP.DEGF              00 000 000 000:  TEMPERATURE                            
 TENS.LBS               00 000 000 000:  CABLE TENSION                          
 AHVT_1ARM.FT3          00 000 000 000:  ANNULAR VOLUME TOTAL                   
 BHVT_1ARM.FT3          00 000 000 000:  BOREHOLE VOLUME TOTAL                  
 CALI_1ARM.IN           00 000 000 000:  CALIPER                                
 AHVT_4ARM.FT3          00 000 000 000:  ANNULAR VOLUME TOTAL                   
 BHVT_4ARM.FT3          00 000 000 000:  BOREHOLE VOLUME TOTAL                  
 C13 .IN                00 000 000 000:  FOUR ARM CALIPER ARMS 1 & 3            
 C24 .IN                00 000 000 000:  FOUR ARM CALIPER ARMS 2 & 4            
 CALA_4ARM.IN           00 000 000 000:  AVERAGE CALIPER (C1+C2)/2              
~A  DEPT        DFL        DLOD       DPHI       DRHO       FDSN       GR         HDCN       HDRS       HMRS       NDSN       NPHI       NRAT       PE         RHOB       SPA        TEMP       TENS     AHVT_1ARM  BHVT_1ARM  CALI_1ARM  AHVT_4ARM  BHVT_4ARM    C13        C24      CALA_4ARM
# ...
 1693.8333    32.0708  1529.1060     0.1404     0.1197  1088.8521    24.8443    31.1998    32.0515    26.2076 11836.6729     0.4735    11.0988     2.6990     2.4183   154.7470   121.9764  2437.4277  3260.5312  5904.4424    18.2164  2976.8472  5623.6802    17.8217    21.8097    19.8157 
 1694.3333    32.3652  1526.4419     0.1217     0.0892  1142.7861    27.5738    30.2548    33.0526    27.4017 12015.5449     0.4523    10.7354     2.9916     2.4491   153.7663   121.9887  2427.9817  3260.1135  5903.5366    18.2723  2976.2751  5622.6206    17.8495    21.8028    19.8261 
 1694.8333    32.9563  1524.2625     0.0999     0.0597  1189.2676    30.1699    27.9205    35.8160    31.0157 12184.5293     0.4365    10.4494     3.3307     2.4852   153.1741   121.9986  2416.5811  3259.6880  5902.6235    18.3999  2975.7004  5621.5576    17.9789    21.8003    19.8896 
 1695.3333    34.0578  1523.7777     0.0803     0.0475  1235.4142    31.9790    24.9349    40.1045    37.2536 12314.2754     0.4224    10.1786     3.5749     2.5176   153.3833   122.0214  2412.5095  3259.2478  5901.6958    18.6285  2975.1167  5620.4858    18.1439    21.7999    19.9719 
 1695.8333    35.2416  1526.1995     0.0651     0.0487  1287.4589    32.1948    22.3487    44.7454    44.3701 12404.8955     0.4044     9.8400     3.6538     2.5427   154.3884   122.0358  2420.0012  3258.7815  5900.7417    18.8652  2974.5210  5619.4019    18.2843    21.8121    20.0482 
 1696.3333    36.4802  1526.1995     0.0589     0.0471  1311.5836    30.5571    21.0727    47.4547    48.3867 12479.3867     0.3970     9.7068     3.6446     2.5529   156.0157   122.0558  2421.1414  3258.2974  5899.7695    18.9024  2973.9231  5618.3159    18.1565    21.7952    19.9758 
 1696.8333    37.1466  1526.4419     0.0602     0.0419  1330.8850    28.4434    21.0680    47.4653    48.1281 12528.2295     0.3909     9.6036     3.6224     2.5506   157.4364   122.0772  2425.5386  3257.8086  5898.7925    18.9529  2973.3345  5617.2397    17.8782    21.8051    19.8416 
 1697.3333    37.6939  1528.8636     0.0628     0.0412  1353.4686    27.4341    21.6264    46.2398    46.3037 12517.6631     0.3807     9.4323     3.5621     2.5464   158.1916   122.0856  2431.4019  3257.3201  5897.8159    18.8279  2972.7642  5616.1812    17.5535    21.8100    19.6817 
 1697.8333    38.8568  1526.4419     0.0585     0.0546  1331.8967    27.7642    21.6506    46.1881    44.7463 12438.0859     0.3852     9.5310     3.3843     2.5535   158.5013   122.0986  2432.2161  3256.8457  5896.8540    18.5062  2972.2122  5615.1411    17.3171    21.8095    19.5633 
 1698.3333    41.6742  1526.4419     0.0468     0.0893  1297.9570    27.3262    20.9086    47.8273    43.9115 12303.6680     0.3926     9.6786     3.0794     2.5728   158.6806   122.1093  2432.8674  3256.4028  5895.9233    18.4105  2971.6721  5614.1128    17.3763    21.7777    19.5770 
 1698.8333    46.6405  1526.1995     0.0432     0.1293  1305.1340    25.3648    20.2672    49.3408    43.0672 12181.1348     0.3839     9.5275     2.7909     2.5787   158.5855   122.1093  2436.6135  3255.9700  5895.0024    18.2882  2971.1252  5613.0776    17.5967    21.7657    19.6812 
 1699.3333    53.2645  1530.3169     0.0426     0.1488  1333.1875    23.5050    19.9215    50.1971    41.2354 12164.2832     0.3720     9.3080     2.7012     2.5797   158.5855   122.1162  2440.5222  3255.5461  5894.0908    18.2749  2970.5669  5612.0312    17.6192    21.7881    19.7036 
 1699.8333    59.2914  1533.2235     0.0299     0.1352  1369.0121    23.0226    18.6119    53.7290    41.9750 12299.1328     0.3650     9.1634     2.8863     2.6006   157.4935   122.1208  2448.5027  3255.1238  5893.1802    18.2483  2970.0090  5610.9858    17.5220    21.7965    19.6592 
 1700.3333    61.9741  1539.2780     0.0098     0.0987  1435.2084    23.4161    15.9237    62.7996    49.7392 12547.5625     0.3541     8.9307     3.2017     2.6338   156.3607   122.1191  2448.6655  3254.7029  5892.2715    18.2164  2969.4568  5609.9453    17.4923    21.8083    19.6503 
 1700.8333    58.7434  1536.3713    -0.0055     0.0730  1524.8934    23.1940    13.6846    73.0747    68.6621 12772.3574     0.3364     8.5610     3.4031     2.6590   155.1409   122.1214  2443.9421  3254.2883  5891.3687    18.2111  2968.9028  5608.9033    17.6323    21.8035    19.7179 
 1701.3333    50.8261  1535.4028    -0.0002     0.0722  1536.5555    23.1559    14.9688    66.8056    74.9676 12811.4170     0.3356     8.5263     3.3745     2.6503   154.0597   122.1214  2444.5938  3253.8638  5890.4561    18.5860  2968.3394  5607.8516    17.8004    21.8074    19.8039 
 1701.8333    41.2275  1531.2854     0.0435     0.0687  1419.9227    24.1778    19.2457    51.9597    55.2169 12621.0781     0.3673     9.1237     3.2712     2.5782   153.5898   122.1252  2445.2454  3253.3977  5889.5020    18.9343  2967.7681  5606.7925    17.8049    21.8061    19.8055 
 1702.3333    32.9501  1529.8331     0.1213     0.0507  1257.0927    24.3048    22.3625    44.7178    43.2271 12295.8428     0.4187    10.0577     3.2636     2.4499   153.8669   122.1275  2444.9194  3252.9062  5888.5225    19.0300  2967.2002  5605.7368    17.5590    21.8128    19.6859 
 1702.8333    26.4035  1530.8016     0.2056     0.0364  1113.6263    23.1749    22.3627    44.7173    40.9965 11981.3047     0.4779    11.0617     3.2819     2.3108   154.4536   122.1381  2440.3594  3252.4043  5887.5327    18.9237  2966.6489  5604.6973    17.1763    21.8108    19.4936 
 1703.3333    22.2556  1534.1920     0.2651     0.0416  1014.6733    21.3913    26.4852    37.7570    35.0663 11772.1367     0.5286    11.8777     3.1610     2.2126   155.1626   122.1473  2434.0076  3251.9255  5886.5659    18.6152  2966.1204  5603.6807    16.9118    21.8062    19.3590 
 1703.8333    20.3930  1534.4343     0.2860     0.0643   973.8007    19.9504    37.1814    26.8952    25.6266 11654.5410     0.5495    12.2149     2.8404     2.1781   155.7956   122.1489  2441.4993  3251.4709  5885.6235    18.5036  2965.6038  5602.6763    16.9180    21.8089    19.3635 
 1704.3333    20.7050  1537.0985     0.2834     0.0894   979.1744    19.9884    44.8093    22.3168    20.9492 11593.6289     0.5391    12.0830     2.5270     2.1823   156.2112   122.1513  2447.6882  3251.0278  5884.6929    18.3813  2965.0811  5601.6660    17.1990    21.8004    19.4997 
 1704.8333    22.8832  1534.4343     0.2819     0.1025   990.0443    20.8708    45.9664    21.7550    19.8563 11591.3545     0.5288    11.9484     2.3630     2.1849   156.2574   122.1636  2455.9941  3250.5959  5883.7729    18.3414  2964.5425  5600.6396    17.4403    21.7995    19.6199 
 1705.3333    25.4966  1535.6453     0.2847     0.0930   974.2629    21.6071    44.8370    22.3030    19.9350 11639.5049     0.5462    12.1981     2.4353     2.1803   155.9477   122.1658  2461.2058  3250.1667  5882.8564    18.2935  2963.9917  5599.6006    17.5053    21.8141    19.6597 
 1705.8333    27.4282  1534.1920     0.2682     0.0711   956.5579    21.4230    42.7527    23.3904    21.0642 11717.8799     0.5685    12.5026     2.6847     2.2075   155.2958   122.1718  2454.8542  3249.7429  5881.9443    18.2749  2963.4370  5598.5581    17.6162    21.8159    19.7161 
 1706.3333    28.7329  1539.0355     0.2263     0.0542   982.4360    19.8361    38.5640    25.9309    24.9424 11798.6758     0.5538    12.2686     3.0039     2.2767   155.0024   122.1703  2465.6033  3249.3198  5881.0332    18.2909  2962.8743  5597.5078    17.8146    21.8175    19.8161 
 1706.8333    29.1784  1542.9106     0.1886     0.0485  1038.7118    18.4206    33.2615    30.0648    32.4593 11838.4941     0.5128    11.6431     3.2451     2.3388   155.0703   122.1781  2464.6260  3248.8918  5880.1177    18.6445  2962.2981  5596.4443    18.0774    21.8171    19.9473 
 1707.3333    28.1229  1545.0911     0.1871     0.0453  1071.3667    18.0778    30.7319    32.5394    37.0911 11829.2451     0.4889    11.2654     3.3445     2.3413   155.5131   122.1657  2467.3948  3248.4080  5879.1455    19.3890  2961.7068  5595.3657    18.2531    21.8173    20.0352 
