~Version Information
 VERS.                  2.0:   CWLS log ASCII Standard -VERSION 2.0
 WRAP.                   NO:   One line per depth step
~Well Information Block
#MNEM.UNIT       Data Type    Information
#---------     -----------    ---------------------------
 STRT.F              1021.8333:
 STOP.F              4406.3335:
 STEP.F                 0.5000:
 NULL.               -999.2500:
 APD .                   31.0':  ABOVE PERMANENT DATUM
 UWI .           36-017-900042:  API WELLHOLE NUMBER
 BHT .                   162 F:  BOTTOMHOLE TEMPERATURE
 BLI .                   4387':  BOTTOM LOGGED INTERVAL
 BS  .                 17.500":  BIT SIZE
 CBD .                   1108':  CASING BOTTOM DRILLER
 CBL .                   1108':  CASING BOTTOM LOGGER
 COMP.    NORTHWEST GEOTHERMAL:  COMPANY NAME
 COUN.               DESCHUTES:  COUNTY
 CS  .                 20.000":  CASING DIAMETER
 DATE.             JUN-04-2008:  LOGGING DATE
 DFD .                    10.4:  DRILLING FLUID DENSITY
 DFL .                    10.4:  DRILLING FLUID LOSS
 DFPH.                     8.0:  DRILLING FLUID PH
 DFT .                    LSND:  DRILLING FLUID TYPE
 DFV .                    52.0:  DRILLING FLUID VISCOSITY
 DMF .                    K.B.:  DRILLING MEASURED
 EDF .               ---------:  ELEVATION OF DRILLING FLOOR
 EDIA.                  5.500":  EQUIP. DATA-DENSITY-DIAMETER
 EDOD.                 SDLT-DA:  EQUIP. DATA-DENSITY-MODEL NO.
 EDS1.                   10.0':  EQUIP. DATA-GAMMA-DISTANCE TO SOURCE
 EDSN.                 2694 GW:  EQUIP. DATA-DENSITY-SOURCE SERIAL NO.
 EDT .                     432:  EQUIP. DATA-GAMMA-DETECTOR MODEL NO.
 EDTR.                  1.5 CI:  EQUIP. DATA-DENSITY-STRENGTH
 EDUN.                     ONE:  EQUIP. DATA-DENSITY-RUN NO.
 EFWD.                      NO:  EQUIP. DATA-ACOUSTIC-FWDA
 EGL .                --------:  ELEVATION OF GROUND LEVEL
 EGMD.                    NGRT:  EQUIP. DATA-GAMMA-MODEL NO.
 EGRN.                     ONE:  EQUIP. DATA-GAMMA-RUN NO.
 EGSN.                   A-175:  EQUIP. DATA-GAMMA-SERIAL NO.
 EKB .                --------:  ELEVATION OF KELLY BUSHING
 ELGT.                 GAM-GAM:  EQUIP. DATA-DENSITY-LOG TYPE
 ELN1.                   4.00":  EQUIP. DATA-GAMMA-LENGTH
 EMIA.                  3.625":  EQUIP. DATA-GAMMA-DIAMETER
 ENER.                I714M741:  EQUIP. DATA-DENSITY-SERIAL NO.
 ENGI.             G. ROUSSEAU:  ENGINEER 1 NAME
 ENGT.                 NEU-NEU:  EQUIP. DATA-NEUTRON-LOG TYPE
 ENIA.                  3.625":  EQUIP. DATA-NEUTRON-DIAMETER
 ENOD.                  DSNT-X:  EQUIP. DATA-NEUTRON-MODEL NO.
 EPD .               ---------:  ELEVATATION OF PERMANENT DATUM
 EQLA.                      NO:  EQUIP. DATA-ACOUSTIC-LSA
 ESAT.                  CS-137:  EQUIP. DATA-DENSITY-SOURCE TYPE
 ESER.                      05:  EQUIP. DATA-NEUTRON-SERIAL NO.
 ESRT.                 AM241BE:  EQUIP. DATA-NEUTRON-SOURCE TYPE
 ESSN.                 DSN-307:  EQUIP. DATA-NEUTRON-SOURCE SERIAL NO.
 ESTR.                 15.0 CI:  EQUIP. DATA-NEUTRON-STRENGTH
 ETP1.                  SCINT.:  EQUIP. DATA-GAMMA-TYPE
 EURN.                     ONE:  EQUIP. DATA-NEUTRON-RUN NO.
 FL1 .             LAT: 43.333:  FIELD LOCATION LINE 1
 FL2 .          LONG: 121.1856:  FIELD LOCATION LINE 2
 FLD .    NEWBERRY KGRA (CASCADE RANGE):  FIELD NAME
 HDRT.                   OPENH:  HEADER TYPE
 LCL1.                       0:  LOGGING DATA-GAMMA-SCALE L 1
 LCL2.                     API:  LOGGING DATA-GAMMA-SCALE L 2
 LCR1.                     150:  LOGGING DATA-GAMMA-SCALE R 1
 LCR2.                     API:  LOGGING DATA-GAMMA-SCALE R 2
 LDL1.                    1.65:  LOGGING DATA-DENSITY-SCALE L 1
 LDL2.                    GMCC:  LOGGING DATA-DENSITY-SCALE L 2
 LDR1.                    2.65:  LOGGING DATA-DENSITY-SCALE R 1
 LDR2.                    GMCC:  LOGGING DATA-DENSITY-SCALE R 2
 LDX1.                    2.65:  LOGGING DATA-DENSITY-MATRIX 1
 LDX2.                    GMCC:  LOGGING DATA-DENSITY-MATRIX 2
 LFR1.                   4396':  LOGGING DATA-GENERAL-DEPTH FROM 1
 LMF .                    K.B.:  LOG MEASURED FROM
 LMX1.                    SAND:  LOGGING DATA-NEUTRON-MATRIX 1
 LRU1.                     ONE:  LOGGING DATA-GENERAL-RUN NO. 1
 LSL1.                     .60:  LOGGING DATA-NEUTRON-SCALE L 1
 LSL2.                       %:  LOGGING DATA-NEUTRON-SCALE L 2
 LSP1.                      60:  LOGGING DATA-GENERAL-SPEED 1
 LSR1.                       0:  LOGGING DATA-NEUTRON-SCALE R 1
 LSR2.                       %:  LOGGING DATA-NEUTRON-SCALE R 2
 LTO1.                   1108':  LOGGING DATA-GENERAL-DEPTH TO 1
 LUL .                    WDLD:  LOGGING UNIT LOCATION
 LUN .                   49599:  LOGGING UNIT NUMBER
 MCSS.                    MEAS:  MUD CAKE SAMPLE SOURCE
 MCST.                    40 F:  MUDCAKE SAMPLE TEMPERATURE
 MFSS.                    MEAS:  MUD FILTRATE SAMPLE SOURCE
 MFST.                    45 F:  MUD FILTRATE SAMPLE TEMPERATURE
 MRT .                   162 F:  MAXIMUM RECORDED TEMPERATURE
 MSS .                FLOWLINE:  SOURCE OF MUD SAMPLE
 MST .                    51 F:  MUD SAMPLE TEMPERATURE
 OS1 .                    NGRT:  OTHER SERVICES LINE 1
 OS2 .                    FIAC:  OTHER SERVICES LINE 2
 OS3 .                    HRTT:  OTHER SERVICES LINE 3
 OTH1.                      NA:  RES. EQUIP DATA: OTHER 1 (OH)
 PDAT.                    G.L.:  PERMANENT DATUM
 PGMV.                 XL v5.8:  PROGRAM VERSION
 PT1 .                      NA:  RES. EQUIP DATA: PAD TYPE 1 (OH)
 R1  .    ANNULAR HOLE VOLUME CALCULATED USING 13.375" CASING.:  REMARKS LINE 1
 R10 .    CREW: M. EMERSON, A, CARRASCO.                              RIG: NABORS NO. 633.:  REMARKS LINE 10
 R2  .    HRID-SDLT-DSNT-NGRT-FIAC-HRTT-RWCH RUN IN COMBINATION.:  REMARKS LINE 2
 R3  .    MAX. READ THERMOMETERS: 162F, AND 162 F.:  REMARKS LINE 3
 R4  .    MAX. READ FROM TEMP TOOL. 163.5 F @ 3981'.:  REMARKS LINE 4
 RANG.                     12E:  RANGE
 RMB .                   1.883:  RESISTIVITY OF MUD - BHT
 RMCS.                   5.720:  RESISTIVITY OF MUDCAKE SAMPLE
 RMFS.                   5.140:  RESISTIVITY OF MUD FILTRATE SAMPLE
 RMS .                   5.500:  RESISTIVITY OF MUD SAMPLE
 RRN1.                     ONE:  RES. EQUIP DATA: RUN NO 1 (OH)
 RUN .                     ONE:  RUN NUMBER 1
 SECT.                      29:  SECTION
 SON .                 5932371:  SERVICE/TICKET ORDER NUMBER
 PROV.                      OR:  STATE
 TCS .              1400 06-04:  TIME CIRCULATION STOPPED
 TDD .                   4409':  DRILLERS DEPTH
 TDL .                   4396':  LOGGERS DEPTH
 TLAB.              0050 06-05:  TIME LOGGING ON BOTTOM
 TLI .                   1108':  TOP LOGGED INTERVAL
 TN1 .           HRIT #211_132:  RES. EQUIP DATA: TOOL TYPE & NO. 1 (OH)
 TOWN.                     21S:  TOWNSHIP
 TPS1.                1.50" SO:  RES. EQUIP DATA: TOOL POS. 1 (OH)
 TITLE1.    HIGH RES. INDUCTION:  HEADER TITLE LINE 1
 TITLE2.      SPECTRAL DENSITY:  HEADER TITLE LINE 2
 TITLE3.    DUAL SPACED NEUTRON:  HEADER TITLE LINE 3
 TITLE4.               5"=100':  HEADER TITLE LINE 4
 WITN.              R. BALDWIN:  WITNESS 1 NAME
 WELL.               NWG 55-29:  WELL NAME
 XTP .                      TD:  MAX. REC TEMP. @ 1 (OPEN HOLE)
~Parameter Information Block
#MNEM.UNIT       Value        Description
#---------     -----------    ---------------------------
~Curve Information Block
#MNEM.UNIT                 API CODE     Curve Description
#---------               -----------    ---------------------------
 DEPT.F                 00 000 000 000:  
 DFL .OHMM              00 000 000 000:  DIGITALLY FOCUSED LATEROLOG            
 DLOD.LB                00 000 000 000:  CABLE HEAD TENSION                     
 DPHI.DECP              00 000 000 000:  DENSITY POROSITY                       
 DRHO.G/CC              00 000 000 000:  DENSITY CORRECTION                     
 FDSN.CPS               00 000 000 000:  DSN FAR COUNTS                         
 GR  .GAPI              00 000 000 000:  NATURAL GAMMA                          
 HDCN.MMHO              00 000 000 000:  HRI DEEP CONDUCTIVITY                  
 HDRS.OHMM              00 000 000 000:  HRI DEEP RESISTIVITY                   
 HMRS.OHMM              00 000 000 000:  HRI MEDIUM RESISTIVITY                 
 NDSN.CPS               00 000 000 000:  DSN NEAR COUNTS                        
 NPHI.DECP              00 000 000 000:  NEUTRON POROSITY                       
 NRAT.C/C               00 000 000 000:  DSN (NDSN/FDSN) RATIO                  
 PE  .                  00 000 000 000:  PHOTO-ELECTRIC FACTOR                  
 RHOB.G/CC              00 000 000 000:  BULK DENSITY                           
 SPA .MV                00 000 000 000:  ANALOG SPONTANEOUS POTENTIAL           
 TEMP.DEGF              00 000 000 000:  TEMPERATURE                            
 TENS.LBS               00 000 000 000:  CABLE TENSION                          
 AHVT_1ARM.FT3          00 000 000 000:  ANNULAR VOLUME TOTAL                   
 BHVT_1ARM.FT3          00 000 000 000:  BOREHOLE VOLUME TOTAL                  
 CALI_1ARM.IN           00 000 000 000:  CALIPER                                
 AHVT_4ARM.FT3          00 000 000 000:  ANNULAR VOLUME TOTAL                   
 BHVT_4ARM.FT3          00 000 000 000:  BOREHOLE VOLUME TOTAL                  
 C13 .IN                00 000 000 000:  FOUR ARM CALIPER ARMS 1 & 3            
 C24 .IN                00 000 000 000:  FOUR ARM CALIPER ARMS 2 & 4            
 CALA_4ARM.IN           00 000 000 000:  AVERAGE CALIPER (C1+C2)/2              
~A  DEPT        DFL        DLOD       DPHI       DRHO       FDSN       GR         HDCN       HDRS       HMRS       NDSN       NPHI       NRAT       PE         RHOB       SPA        TEMP       TENS     AHVT_1ARM  BHVT_1ARM  CALI_1ARM  AHVT_4ARM  BHVT_4ARM    C13        C24      CALA_4ARM
# ...
 1917.8333    12.8121  1538.5518     0.1885     0.1193   959.1172    23.0162    52.0691    19.2052    17.4115 11447.3809     0.5444    12.1908     2.7511     2.3390   157.1186   124.5381  2549.3157  3011.0371  5436.3955    17.9559  2728.3696  5156.6372    17.5396    21.4196    19.4796 
 1918.3333    13.9441  1540.7312     0.1982     0.0749   946.3511    23.2511    48.1780    20.7563    18.9111 11468.7559     0.5571    12.3687     3.0795     2.3230   156.5372   124.5455  2558.5989  3010.6455  5435.5166    17.9612  2727.8303  5155.6099    17.5924    21.5223    19.5574 
 1918.8333    14.6628  1544.8486     0.1988     0.0388   966.8846    22.4576    45.2752    22.0871    20.3347 11499.7910     0.5413    12.1393     3.4513     2.3220   156.2574   124.5508  2565.9275  3010.2532  5434.6367    17.9878  2727.2839  5154.5757    17.5468    21.6689    19.6079 
 1919.3333    15.2904  1546.5433     0.1835     0.0279   975.6145    21.1056    39.0087    25.6353    22.1775 11539.4473     0.5360    12.0644     3.6961     2.3473   156.2900   124.5516  2571.9536  3009.8577  5433.7534    18.0197  2726.7354  5153.5391    17.4166    21.7141    19.5654 
 1919.8333    15.8772  1550.4183     0.1595     0.0332   973.1106    20.3693    33.3351    29.9984    24.0438 11568.6406     0.5400    12.1239     3.7592     2.3868   156.4150   124.5567  2577.1653  3009.4595  5432.8672    18.0569  2726.1936  5152.5093    17.2866    21.7232    19.5049 
 1920.3333    16.0321  1545.3324     0.1473     0.0379   979.6323    21.5944    32.1548    31.0995    24.8375 11567.4395     0.5339    12.0431     3.6941     2.4069   156.3525   124.5627  2564.4622  3009.0569  5431.9766    18.0835  2725.6582  5151.4858    17.2803    21.7115    19.4959 
 1920.8333    15.7422  1540.7312     0.1556     0.0432   983.6903    22.4449    34.7994    28.7361    24.2399 11553.1240     0.5285    11.9787     3.5225     2.3933   156.3444   124.5802  2553.3872  3008.6531  5431.0850    18.0728  2725.1223  5150.4619    17.4245    21.5951    19.5098 
 1921.3333    15.2747  1533.7083     0.1759     0.0630   972.2314    21.5880    37.5912    26.6020    23.0797 11530.6992     0.5360    12.1015     3.2561     2.3597   156.2357   124.5947  2538.4036  3008.2510  5430.1948    18.0463  2724.5835  5149.4351    17.5675    21.4297    19.4986 
 1921.8333    15.1630  1528.6222     0.1911     0.1012   948.8936    20.9596    40.1701    24.8942    21.3726 11479.2217     0.5528    12.3478     2.9124     2.3347   155.9803   124.6152  2527.4917  3007.8511  5429.3076    18.0250  2724.0454  5148.4092    17.6531    21.3174    19.4852 
 1922.3333    15.6984  1526.9266     0.1980     0.1389   950.7530    21.5119    44.3267    22.5598    19.4720 11433.3359     0.5481    12.2812     2.6345     2.3232   155.7168   124.6365  2524.5601  3007.4539  5428.4229    17.9957  2723.5061  5147.3823    17.7912    21.2555    19.5233 
 1922.8333    16.9221  1527.6527     0.1842     0.1634   975.2767    23.8541    47.4269    21.0851    18.5665 11429.6797     0.5259    11.9634     2.5004     2.3460   155.3990   124.6618  2524.0715  3007.0588  5427.5400    17.9745  2722.9600  5146.3486    18.0094    21.1980    19.6037 
 1923.3333    18.4749  1529.5908     0.1561     0.1606   978.0917    24.4571    45.2055    22.1212    19.4752 11483.2881     0.5269    11.9761     2.5813     2.3925   155.1545   124.6879  2532.5405  3006.6655  5426.6587    17.9798  2722.4048  5145.3057    18.1729    21.1693    19.6711 
 1923.8333    19.6730  1532.2549     0.1296     0.1304   964.0887    23.9430    40.2729    24.8306    21.9397 11583.4141     0.5474    12.2567     2.8418     2.4362   154.9480   124.6979  2542.4753  3006.2720  5425.7769    17.9851  2721.8416  5144.2549    18.1576    21.2826    19.7201 
 1924.3333    19.9494  1536.6138     0.1355     0.0826   959.9412    23.4098    40.1176    24.9267    23.6189 11657.5615     0.5576    12.3912     3.2286     2.4264   155.0757   124.6957  2550.2927  3005.8782  5424.8950    17.9957  2721.2751  5143.2007    17.9732    21.4976    19.7354 
 1924.8333    19.4095  1541.6997     0.1621     0.0455   988.8151    24.5523    46.0221    21.7287    22.7039 11685.0566     0.5363    12.0771     3.5873     2.3825   155.4044   124.7010  2558.2732  3005.4814  5424.0107    18.0915  2720.7107  5142.1484    17.7605    21.6552    19.7079 
 1925.3333    18.8258  1547.5128     0.1847     0.0309  1007.4130    24.8253    50.2064    19.9178    21.9175 11687.9980     0.5219    11.8660     3.7830     2.3453   155.5810   124.7094  2557.6218  3005.0710  5423.1128    18.3361  2720.1497  5141.0996    17.7474    21.7103    19.7289 
 1925.8333    18.6287  1547.5128     0.1946     0.0315   989.4513    23.7018    47.9990    20.8338    22.9884 11666.3975     0.5346    12.0586     3.7238     2.3288   155.5919   124.7157  2558.7615  3004.6401  5422.1938    18.4105  2719.5869  5140.0488    17.7222    21.7190    19.7206 
 1926.3333    18.9095  1541.9421     0.1992     0.0481  1006.2103    22.3053    43.9960    22.7293    24.4190 11612.9482     0.5161    11.8001     3.4343     2.3213   155.5348   124.7364  2554.8530  3004.2034  5421.2690    18.4132  2719.0259  5139.0000    17.7020    21.6646    19.6833 
 1926.8333    19.4868  1533.7083     0.2084     0.0844  1021.3401    22.5084    42.4068    23.5811    24.5338 11513.5811     0.4960    11.5198     3.0469     2.3061   155.3121   124.7538  2542.9639  3003.7673  5420.3452    18.2377  2718.4700  5137.9561    17.7084    21.5381    19.6233 
 1927.3333    20.1943  1527.1689     0.2191     0.1418   980.0543    23.6192    41.9542    23.8355    23.7595 11414.0215     0.5203    11.9011     2.6911     2.2885   154.9725   124.7719  2534.6577  3003.3582  5419.4482    17.9771  2717.9177  5136.9160    17.8089    21.4334    19.6211 
 1927.8333    21.0951  1523.2939     0.2324     0.1987   942.0012    22.9147    41.1401    24.3072    22.7369 11374.9805     0.5476    12.3151     2.4761     2.2665   154.7660   124.7704  2524.7229  3002.9656  5418.5679    17.9479  2717.3630  5135.8735    17.9913    21.3893    19.6903 
 1928.3333    22.1545  1523.2939     0.2416     0.2338   938.8287    23.1940    39.9511    25.0306    21.8902 11385.2334     0.5516    12.3703     2.3764     2.2514   154.5867   124.7636  2525.7002  3002.5754  5417.6899    17.9293  2716.7986  5134.8208    18.2450    21.3308    19.7879 
 1928.8333    23.3336  1524.2625     0.2354     0.2360   951.7762    24.1143    38.8206    25.7595    21.7229 11420.2852     0.5433    12.2447     2.3763     2.2616   154.2961   124.7521  2532.2148  3002.1877  5416.8140    17.9027  2716.2217  5133.7559    18.4829    21.2751    19.8790 
 1929.3333    24.2869  1524.2625     0.2157     0.1928   963.9193    25.0982    37.0685    26.9771    22.7665 11470.9805     0.5371    12.1429     2.5352     2.2941   154.0027   124.7521  2535.1462  3001.8018  5415.9399    17.9053  2715.6360  5132.6821    18.5467    21.3602    19.9534 
 1929.8333    24.8643  1525.9581     0.1914     0.1198   988.2937    24.2476    33.2364    30.0875    26.0499 11536.6914     0.5229    11.9147     2.8855     2.3341   153.8342   124.7453  2537.5894  3001.4148  5415.0654    17.9399  2715.0417  5131.6001    18.4222    21.5609    19.9915 
 1930.3333    25.0746  1529.8331     0.1760     0.0539  1027.4216    22.0704    28.3589    35.2623    32.2743 11622.8066     0.4995    11.5447     3.3771     2.3597   153.6468   124.7454  2543.7783  3001.0239  5414.1865    18.0117  2714.4490  5130.5195    18.0693    21.7287    19.8990 
 1930.8333    25.1037  1530.0746     0.1717     0.0201  1059.2069    20.8263    25.6102    39.0470    38.5766 11702.3672     0.4826    11.2708     3.7533     2.3667   153.5354   124.7464  2543.2896  3000.6218  5413.2969    18.2696  2713.8716  5129.4546    17.6839    21.7426    19.7132 
 1931.3333    25.0909  1534.4343     0.1712     0.0185  1062.5576    20.9787    25.6387    39.0036    40.4976 11738.9941     0.4828    11.2732     3.8689     2.3675   153.4376   124.7450  2544.2668  3000.1897  5412.3770    18.5833  2713.3154  5128.4102    17.4734    21.7392    19.6063 
