~Version Information
 VERS.                  2.0:   CWLS log ASCII Standard -VERSION 2.0
 WRAP.                   NO:   One line per depth step
~Well Information Block
#MNEM.UNIT       Data Type    Information
#---------     -----------    ---------------------------
 STRT.F              1021.8333:
 STOP.F              4406.3335:
 STEP.F                 0.5000:
 NULL.               -999.2500:
 APD .                   31.0':  ABOVE PERMANENT DATUM
 UWI .           36-017-900042:  API WELLHOLE NUMBER
 BHT .                   162 F:  BOTTOMHOLE TEMPERATURE
 BLI .                   4387':  BOTTOM LOGGED INTERVAL
 BS  .                 17.500":  BIT SIZE
 CBD .                   1108':  CASING BOTTOM DRILLER
 CBL .                   1108':  CASING BOTTOM LOGGER
 COMP.    NORTHWEST GEOTHERMAL:  COMPANY NAME
 COUN.               DESCHUTES:  COUNTY
 CS  .                 20.000":  CASING DIAMETER
 DATE.             JUN-04-2008:  LOGGING DATE
 DFD .                    10.4:  DRILLING FLUID DENSITY
 DFL .                    10.4:  DRILLING FLUID LOSS
 DFPH.                     8.0:  DRILLING FLUID PH
 DFT .                    LSND:  DRILLING FLUID TYPE
 DFV .                    52.0:  DRILLING FLUID VISCOSITY
 DMF .                    K.B.:  DRILLING MEASURED
 EDF .               ---------:  ELEVATION OF DRILLING FLOOR
 EDIA.                  5.500":  EQUIP. DATA-DENSITY-DIAMETER
 EDOD.                 SDLT-DA:  EQUIP. DATA-DENSITY-MODEL NO.
 EDS1.                   10.0':  EQUIP. DATA-GAMMA-DISTANCE TO SOURCE
 EDSN.                 2694 GW:  EQUIP. DATA-DENSITY-SOURCE SERIAL NO.
 EDT .                     432:  EQUIP. DATA-GAMMA-DETECTOR MODEL NO.
 EDTR.                  1.5 CI:  EQUIP. DATA-DENSITY-STRENGTH
 EDUN.                     ONE:  EQUIP. DATA-DENSITY-RUN NO.
 EFWD.                      NO:  EQUIP. DATA-ACOUSTIC-FWDA
 EGL .                --------:  ELEVATION OF GROUND LEVEL
 EGMD.                    NGRT:  EQUIP. DATA-GAMMA-MODEL NO.
 EGRN.                     ONE:  EQUIP. DATA-GAMMA-RUN NO.
 EGSN.                   A-175:  EQUIP. DATA-GAMMA-SERIAL NO.
 EKB .                --------:  ELEVATION OF KELLY BUSHING
 ELGT.                 GAM-GAM:  EQUIP. DATA-DENSITY-LOG TYPE
 ELN1.                   4.00":  EQUIP. DATA-GAMMA-LENGTH
 EMIA.                  3.625":  EQUIP. DATA-GAMMA-DIAMETER
 ENER.                I714M741:  EQUIP. DATA-DENSITY-SERIAL NO.
 ENGI.             G. ROUSSEAU:  ENGINEER 1 NAME
 ENGT.                 NEU-NEU:  EQUIP. DATA-NEUTRON-LOG TYPE
 ENIA.                  3.625":  EQUIP. DATA-NEUTRON-DIAMETER
 ENOD.                  DSNT-X:  EQUIP. DATA-NEUTRON-MODEL NO.
 EPD .               ---------:  ELEVATATION OF PERMANENT DATUM
 EQLA.                      NO:  EQUIP. DATA-ACOUSTIC-LSA
 ESAT.                  CS-137:  EQUIP. DATA-DENSITY-SOURCE TYPE
 ESER.                      05:  EQUIP. DATA-NEUTRON-SERIAL NO.
 ESRT.                 AM241BE:  EQUIP. DATA-NEUTRON-SOURCE TYPE
 ESSN.                 DSN-307:  EQUIP. DATA-NEUTRON-SOURCE SERIAL NO.
 ESTR.                 15.0 CI:  EQUIP. DATA-NEUTRON-STRENGTH
 ETP1.                  SCINT.:  EQUIP. DATA-GAMMA-TYPE
 EURN.                     ONE:  EQUIP. DATA-NEUTRON-RUN NO.
 FL1 .             LAT: 43.333:  FIELD LOCATION LINE 1
 FL2 .          LONG: 121.1856:  FIELD LOCATION LINE 2
 FLD .    NEWBERRY KGRA (CASCADE RANGE):  FIELD NAME
 HDRT.                   OPENH:  HEADER TYPE
 LCL1.                       0:  LOGGING DATA-GAMMA-SCALE L 1
 LCL2.                     API:  LOGGING DATA-GAMMA-SCALE L 2
 LCR1.                     150:  LOGGING DATA-GAMMA-SCALE R 1
 LCR2.                     API:  LOGGING DATA-GAMMA-SCALE R 2
 LDL1.                    1.65:  LOGGING DATA-DENSITY-SCALE L 1
 LDL2.                    GMCC:  LOGGING DATA-DENSITY-SCALE L 2
 LDR1.                    2.65:  LOGGING DATA-DENSITY-SCALE R 1
 LDR2.                    GMCC:  LOGGING DATA-DENSITY-SCALE R 2
 LDX1.                    2.65:  LOGGING DATA-DENSITY-MATRIX 1
 LDX2.                    GMCC:  LOGGING DATA-DENSITY-MATRIX 2
 LFR1.                   4396':  LOGGING DATA-GENERAL-DEPTH FROM 1
 LMF .                    K.B.:  LOG MEASURED FROM
 LMX1.                    SAND:  LOGGING DATA-NEUTRON-MATRIX 1
 LRU1.                     ONE:  LOGGING DATA-GENERAL-RUN NO. 1
 LSL1.                     .60:  LOGGING DATA-NEUTRON-SCALE L 1
 LSL2.                       %:  LOGGING DATA-NEUTRON-SCALE L 2
 LSP1.                      60:  LOGGING DATA-GENERAL-SPEED 1
 LSR1.                       0:  LOGGING DATA-NEUTRON-SCALE R 1
 LSR2.                       %:  LOGGING DATA-NEUTRON-SCALE R 2
 LTO1.                   1108':  LOGGING DATA-GENERAL-DEPTH TO 1
 LUL .                    WDLD:  LOGGING UNIT LOCATION
 LUN .                   49599:  LOGGING UNIT NUMBER
 MCSS.                    MEAS:  MUD CAKE SAMPLE SOURCE
 MCST.                    40 F:  MUDCAKE SAMPLE TEMPERATURE
 MFSS.                    MEAS:  MUD FILTRATE SAMPLE SOURCE
 MFST.                    45 F:  MUD FILTRATE SAMPLE TEMPERATURE
 MRT .                   162 F:  MAXIMUM RECORDED TEMPERATURE
 MSS .                FLOWLINE:  SOURCE OF MUD SAMPLE
 MST .                    51 F:  MUD SAMPLE TEMPERATURE
 OS1 .                    NGRT:  OTHER SERVICES LINE 1
 OS2 .                    FIAC:  OTHER SERVICES LINE 2
 OS3 .                    HRTT:  OTHER SERVICES LINE 3
 OTH1.                      NA:  RES. EQUIP DATA: OTHER 1 (OH)
 PDAT.                    G.L.:  PERMANENT DATUM
 PGMV.                 XL v5.8:  PROGRAM VERSION
 PT1 .                      NA:  RES. EQUIP DATA: PAD TYPE 1 (OH)
 R1  .    ANNULAR HOLE VOLUME CALCULATED USING 13.375" CASING.:  REMARKS LINE 1
 R10 .    CREW: M. EMERSON, A, CARRASCO.                              RIG: NABORS NO. 633.:  REMARKS LINE 10
 R2  .    HRID-SDLT-DSNT-NGRT-FIAC-HRTT-RWCH RUN IN COMBINATION.:  REMARKS LINE 2
 R3  .    MAX. READ THERMOMETERS: 162F, AND 162 F.:  REMARKS LINE 3
 R4  .    MAX. READ FROM TEMP TOOL. 163.5 F @ 3981'.:  REMARKS LINE 4
 RANG.                     12E:  RANGE
 RMB .                   1.883:  RESISTIVITY OF MUD - BHT
 RMCS.                   5.720:  RESISTIVITY OF MUDCAKE SAMPLE
 RMFS.                   5.140:  RESISTIVITY OF MUD FILTRATE SAMPLE
 RMS .                   5.500:  RESISTIVITY OF MUD SAMPLE
 RRN1.                     ONE:  RES. EQUIP DATA: RUN NO 1 (OH)
 RUN .                     ONE:  RUN NUMBER 1
 SECT.                      29:  SECTION
 SON .                 5932371:  SERVICE/TICKET ORDER NUMBER
 PROV.                      OR:  STATE
 TCS .              1400 06-04:  TIME CIRCULATION STOPPED
 TDD .                   4409':  DRILLERS DEPTH
 TDL .                   4396':  LOGGERS DEPTH
 TLAB.              0050 06-05:  TIME LOGGING ON BOTTOM
 TLI .                   1108':  TOP LOGGED INTERVAL
 TN1 .           HRIT #211_132:  RES. EQUIP DATA: TOOL TYPE & NO. 1 (OH)
 TOWN.                     21S:  TOWNSHIP
 TPS1.                1.50" SO:  RES. EQUIP DATA: TOOL POS. 1 (OH)
 TITLE1.    HIGH RES. INDUCTION:  HEADER TITLE LINE 1
 TITLE2.      SPECTRAL DENSITY:  HEADER TITLE LINE 2
 TITLE3.    DUAL SPACED NEUTRON:  HEADER TITLE LINE 3
 TITLE4.               5"=100':  HEADER TITLE LINE 4
 WITN.              R. BALDWIN:  WITNESS 1 NAME
 WELL.               NWG 55-29:  WELL NAME
 XTP .                      TD:  MAX. REC TEMP. @ 1 (OPEN HOLE)
~Parameter Information Block
#MNEM.UNIT       Value        Description
#---------     -----------    ---------------------------
~Curve Information Block
#MNEM.UNIT                 API CODE     Curve Description
#---------               -----------    ---------------------------
 DEPT.F                 00 000 000 000:  
 DFL .OHMM              00 000 000 000:  DIGITALLY FOCUSED LATEROLOG            
 DLOD.LB                00 000 000 000:  CABLE HEAD TENSION                     
 DPHI.DECP              00 000 000 000:  DENSITY POROSITY                       
 DRHO.G/CC              00 000 000 000:  DENSITY CORRECTION                     
 FDSN.CPS               00 000 000 000:  DSN FAR COUNTS                         
 GR  .GAPI              00 000 000 000:  NATURAL GAMMA                          
 HDCN.MMHO              00 000 000 000:  HRI DEEP CONDUCTIVITY                  
 HDRS.OHMM              00 000 000 000:  HRI DEEP RESISTIVITY                   
 HMRS.OHMM              00 000 000 000:  HRI MEDIUM RESISTIVITY                 
 NDSN.CPS               00 000 000 000:  DSN NEAR COUNTS                        
 NPHI.DECP              00 000 000 000:  NEUTRON POROSITY                       
 NRAT.C/C               00 000 000 000:  DSN (NDSN/FDSN) RATIO                  
 PE  .                  00 000 000 000:  PHOTO-ELECTRIC FACTOR                  
 RHOB.G/CC              00 000 000 000:  BULK DENSITY                           
 SPA .MV                00 000 000 000:  ANALOG SPONTANEOUS POTENTIAL           
 TEMP.DEGF              00 000 000 000:  TEMPERATURE                            
 TENS.LBS               00 000 000 000:  CABLE TENSION                          
 AHVT_1ARM.FT3          00 000 000 000:  ANNULAR VOLUME TOTAL                   
 BHVT_1ARM.FT3          00 000 000 000:  BOREHOLE VOLUME TOTAL                  
 CALI_1ARM.IN           00 000 000 000:  CALIPER                                
 AHVT_4ARM.FT3          00 000 000 000:  ANNULAR VOLUME TOTAL                   
 BHVT_4ARM.FT3          00 000 000 000:  BOREHOLE VOLUME TOTAL                  
 C13 .IN                00 000 000 000:  FOUR ARM CALIPER ARMS 1 & 3            
 C24 .IN                00 000 000 000:  FOUR ARM CALIPER ARMS 2 & 4            
 CALA_4ARM.IN           00 000 000 000:  AVERAGE CALIPER (C1+C2)/2              
~A  DEPT        DFL        DLOD       DPHI       DRHO       FDSN       GR         HDCN       HDRS       HMRS       NDSN       NPHI       NRAT       PE         RHOB       SPA        TEMP       TENS     AHVT_1ARM  BHVT_1ARM  CALI_1ARM  AHVT_4ARM  BHVT_4ARM    C13        C24      CALA_4ARM
# ...
 3723.8333     7.2526  1629.6143     0.2171     0.1950  1230.6567    49.1935   147.0578     6.8000     7.6073 12399.8418     0.4266    10.2761     1.9595     2.2917   172.1738   155.2602  3308.4265   853.7743  1517.0045    19.6283   635.1768  1301.3363    17.4783    21.7426    19.6105 
 3724.3333     7.9497  1633.7318     0.2465     0.1746  1254.4994    58.9878   142.4239     7.0213     8.1076 12466.1777     0.4191    10.1356     1.7812     2.2433   172.2934   155.2504  3308.2637   853.2104  1515.9529    19.6655   634.6268  1300.2985    17.5735    21.7423    19.6579 
 3724.8333     8.7774  1638.3330     0.2671     0.1599  1272.3044    67.2206   138.9181     7.1985     8.5626 12513.2236     0.4136    10.0303     1.6266     2.2092   172.4591   155.2519  3313.9639   852.6405  1514.8950    19.8356   634.0718  1299.2556    17.6552    21.6939    19.6746 
 3725.3333     9.5457  1644.6298     0.2665     0.1473  1288.3754    70.5086   135.8238     7.3625     8.9291 12552.6260     0.4092     9.9418     1.5623     2.2103   172.7198   155.2527  3309.2407   852.0468  1513.8134    20.1388   633.5153  1298.2113    17.6590    21.6695    19.6643 
 3725.8333    10.1778  1640.2710     0.2450     0.1432  1327.1906    71.1180   134.4458     7.4379     9.0705 12582.4512     0.3954     9.6812     1.5909     2.2457   172.9996   155.2662  3314.7781   851.4203  1512.6992    20.3647   632.9609  1297.1692    17.5499    21.6874    19.6187 
 3726.3333    10.2137  1644.8722     0.2242     0.1433  1382.1111    71.3465   135.7853     7.3646     8.8922 12614.4912     0.3761     9.3176     1.6420     2.2801   172.9698   155.2820  3346.5366   850.7757  1511.5667    20.4232   632.4127  1296.1333    17.3798    21.7258    19.5528 
 3726.8333     9.6185  1661.0986     0.2235     0.1412  1422.1218    72.1653   138.2097     7.2354     8.5074 12669.6367     0.3642     9.0900     1.6305     2.2813   172.8312   155.3039  3391.3245   850.1360  1510.4392    20.3302   631.8737  1295.1064    17.1929    21.7395    19.4662 
 3727.3333     8.6789  1678.7783     0.2373     0.1350  1435.6016    74.1521   139.5546     7.1657     8.1295 12734.3262     0.3621     9.0476     1.5440     2.2584   172.6546   155.3213  3424.7117   849.4873  1509.3026    20.4684   631.3444  1294.0892    17.0431    21.7485    19.3958 
 3727.8333     7.9022  1682.6533     0.2439     0.1335  1436.5004    76.2151   140.0034     7.1427     7.8364 12797.3555     0.3642     9.0853     1.4429     2.2476   172.0679   155.3401  3422.4314   848.8275  1508.1549    20.6253   630.8235  1293.0806    16.9094    21.7345    19.3220 
 3728.3333     7.5388  1674.6619     0.2764     0.1264  1447.3948    77.1101   142.0099     7.0418     7.5514 12921.7061     0.3655     9.1054     1.3915     2.1940   171.2176   155.3454  3394.2561   848.1613  1507.0009    20.3435   630.3109  1292.0801    16.8109    21.7347    19.2728 
 3728.8333     7.4713  1652.1376     0.3337     0.1138  1500.5194    77.9670   146.3113     6.8347     7.2443 13187.2061     0.3593     8.9694     1.4390     2.0994   169.6882   155.3604  3354.0283   847.5677  1505.9194    19.1656   629.8029  1291.0844    16.7667    21.7451    19.2559 
 3729.3333     7.4660  1634.9426     0.3762     0.0968  1565.6941    77.0656   148.9560     6.7134     7.0570 13512.1787     0.3525     8.8033     1.5644     2.0292   169.8430   155.3686  3337.2537   847.0673  1504.9312    18.5833   629.2966  1290.0901    16.2726    21.7499    19.0113 
 3729.8333     7.3625  1627.4349     0.3804     0.0927  1602.6328    78.1066   146.9334     6.8058     7.0485 13673.1084     0.3490     8.7031     1.6806     2.0223   170.7232   155.3716  3330.7390   846.6237  1503.9998    18.1686   628.8344  1289.1400    15.2894    21.7001    18.4947 
 3730.3333     7.1524  1622.1066     0.3860     0.1211  1619.2983    79.6554   146.1101     6.8442     7.0137 13547.8760     0.3406     8.5361     1.7035     2.0131   172.3015   155.3821  3327.4817   846.2055  1503.0938    18.7482   628.4325  1288.2504    14.3040    21.6536    17.9788 
 3730.8333     7.0557  1623.0751     0.3812     0.1801  1582.2433    83.0958   150.3986     6.6490     6.8342 13229.4326     0.3393     8.5343     1.6294     2.0210   174.5264   155.3926  3334.8105   845.6977  1502.0981    19.9393   628.0761  1287.4061    14.3094    21.6327    17.9710 
 3731.3333     7.1206  1626.7078     0.3133     0.2348  1514.0640    83.4576   154.1476     6.4873     6.6778 12955.2129     0.3484     8.7323     1.5607     2.1330   176.4606   155.3994  3332.5305   845.0881  1501.0007    20.3860   627.7188  1286.5609    14.4058    21.6674    18.0366 
 3731.8333     7.2363  1622.8328     0.2460     0.2304  1480.0193    80.1125   154.3858     6.4773     6.6669 12865.1494     0.3552     8.8671     1.5319     2.2440   176.5882   155.4136  3324.3872   844.4359  1499.8607    20.6811   627.3510  1285.7052    14.8224    21.7037    18.2630 
 3732.3333     7.2310  1626.7078     0.2328     0.1841  1466.2379    77.1291   153.5596     6.5121     6.7256 12878.3955     0.3600     8.9612     1.5407     2.2660   176.2351   155.4248  3344.5825   843.7556  1498.6925    20.6891   626.9492  1284.8157    15.6475    21.6924    18.6700 
 3732.8333     7.1263  1645.8407     0.2455     0.1549  1459.7461    75.7390   153.0612     6.5333     6.7645 12899.6318     0.3625     9.0170     1.5581     2.2450   175.4283   155.4382  3381.5525   843.0754  1497.5245    20.5961   626.5007  1283.8793    16.3104    21.6471    18.9787 
 3733.3333     7.0091  1669.8182     0.2411     0.1676  1460.2504    75.3899   152.3507     6.5638     6.7926 12900.8691     0.3618     9.0152     1.5854     2.2521   174.6187   155.4562  3404.3538   842.4175  1496.3789    20.3195   626.0222  1282.9128    16.4709    21.5983    19.0346 
 3733.8333     6.9358  1675.8727     0.2272     0.1894  1452.8010    76.0564   151.9238     6.5822     6.8125 12872.4141     0.3625     9.0393     1.6014     2.2752   174.0917   155.4645  3396.8616   841.7837  1495.2572    20.1494   625.5412  1281.9440    16.4456    21.4985    18.9720 
 3734.3333     6.8837  1661.5834     0.2191     0.1936  1427.5657    77.4528   152.1588     6.5721     6.7962 12824.8496     0.3690     9.1662     1.5838     2.2885   173.6571   155.4772  3354.8428   841.1671  1494.1528    20.0218   625.0656  1280.9806    16.4356    21.4537    18.9447 
 3734.8333     6.8378  1633.4894     0.2233     0.1740  1390.0067    77.8591   152.8881     6.5407     6.7474 12785.4814     0.3806     9.3834     1.5365     2.2816   173.4751   155.4884  3312.0095   840.5630  1493.0609    19.9340   624.5926  1280.0197    16.4350    21.4563    18.9457 
 3735.3333     6.8250  1612.9032     0.2292     0.1521  1384.2180    77.0847   153.3556     6.5208     6.7179 12798.9248     0.3833     9.4300     1.4897     2.2719   173.4751   155.4988  3312.1724   839.9691  1491.9791    19.9872   624.1181  1279.0573    16.4500    21.4992    18.9746 
 3735.8333     6.8520  1619.9271     0.2196     0.1490  1421.8170    77.3005   151.9057     6.5830     6.7904 12869.9844     0.3731     9.2350     1.4550     2.2877   173.4370   155.5063  3329.4360   839.3618  1490.8839    20.2664   623.6411  1278.0924    16.4808    21.4838    18.9823 
 3736.3333     6.9172  1627.1925     0.1989     0.1501  1459.2667    78.5446   148.4663     6.7355     6.9615 12954.6533     0.3634     9.0561     1.4457     2.3218   173.3582   155.5184  3353.8655   838.7142  1489.7484    20.6732   623.1636  1277.1271    16.4758    21.4795    18.9777 
 3736.8333     6.9618  1636.8796     0.1776     0.1328  1489.3152    78.8683   145.0443     6.8944     7.1277 13003.3643     0.3551     8.9093     1.4688     2.3569   173.3582   155.5366  3374.3865   838.0325  1488.5789    20.8407   622.6859  1276.1616    16.4930    21.5258    19.0094 
 3737.3333     6.9908  1641.2395     0.1669     0.1013  1514.6478    76.5451   142.8608     6.9998     7.2486 12990.9561     0.3461     8.7500     1.5097     2.3746   173.3121   155.5517  3376.1780   837.3287  1487.3872    21.0348   622.2039  1275.1918    16.5574    21.5930    19.0752 
